,Community Area,STORE NAME,Program Name,Program Type,Activity Status,Reduced Meal Eligibiity,Normalized Reduced Meal Eligiblity,HARDSHIP INDEX,LATITUDE,LONGITUDE
0,GRAND BOULEVARD,200 LIQUORS,,,,,,,41.8094238941,-87.62095180200001
1,LAKE VIEW,3600 COMMISSARY,,,,,,,41.9486836744,-87.6436497585
2,ARCHER HEIGHTS,4343 PETES FRESH MARKET,,,,,,,41.8139143113,-87.72366494190003
3,BRIGHTON PARK,4700 PETE'S FRESH MARKET,,,,,,,41.8080472717,-87.70411882229998
4,BELMONT CRAGIN,5659 W. DIVERSEY,,,,,,,41.9311354035,-87.76861213059998
5,ENGLEWOOD,"7400 S HALSTED FOOD AND LIQUORS, INC.",,,,,,,41.7596745819,-87.6444202389
6,AUBURN GRESHAM,79 FOOD BASKET,,,,,,,41.7503211206,-87.65818905290001
7,AUSTIN,A & B FOOD MARKET INC,,,,,,,41.9021664421,-87.75318234870001
8,GREATER GRAND CROSSING,A & G LIQUORS,,,,,,,41.7678312792,-87.6247659397
9,BELMONT CRAGIN,A & R FOOD MART,,,,,,,41.9205964582,-87.7751926809
10,BELMONT CRAGIN,A & R FOOD MART,,,,,,,41.9205964582,-87.7751926809
11,LINCOLN PARK,AARAY GROCERY,,,,,,,41.929209817,-87.648746265
12,WEST ENGLEWOOD,ADA FOODS,,,,,,,41.764894181399995,-87.6573078048
13,AUSTIN,ADAMS FOOD MART,,,,,,,41.8910335471,-87.7553096457
14,BELMONT CRAGIN,AL BAYAN GROCERY INC.,,,,,,,41.9375646502,-87.7860543686
15,EDGEWATER,ALDI,,,,,,,41.9952114602,-87.6602779929
16,WOODLAWN,ALDI,,,,,,,41.7743058812,-87.60564802530001
17,BRIGHTON PARK,ALDI,,,,,,,41.8034457131,-87.7039862718
18,SOUTH LAWNDALE,ALDI,,,,,,,41.8381141517,-87.7049944648
19,LINCOLN PARK,ALDI,,,,,,,41.914423714099996,-87.65462784299999
20,AUBURN GRESHAM,ALDI,,,,,,,41.7549909175,-87.6634041558
21,AVALON PARK,ALDI,,,,,,,41.7527456405,-87.58752348530001
22,WEST GARFIELD PARK,ALDI,,,,,,,41.8806594115,-87.72219366889999
23,HUMBOLDT PARK,ALDI,,,,,,,41.8956153135,-87.7067053251
24,HERMOSA,ALDI,,,,,,,41.931460938200004,-87.74371730700001
25,LINCOLN PARK,ALDI,,,,,,,41.9286950012,-87.67419508309997
26,LOGAN SQUARE,ALDI,,,,,,,41.9282078544,-87.72815855799999
27,BELMONT CRAGIN,ALDI,,,,,,,41.9321576791,-87.76642459879999
28,IRVING PARK,ALDI,,,,,,,41.9423835134,-87.72901085950001
29,WEST RIDGE,ALDI,,,,,,,41.9946209588,-87.6996868624
30,ALBANY PARK,ALDI,,,,,,,41.9719812207,-87.72798689790001
31,ARCHER HEIGHTS,ALDI,,,,,,,41.8114515422,-87.72357465440002
32,GARFIELD RIDGE,ALDI,,,,,,,41.796380489499995,-87.75734757219999
33,NORTH CENTER,ALDI,,,,,,,41.961194098600004,-87.68996697040001
34,WEST TOWN,ALDI,,,,,,,41.91358779,-87.6822028354
35,ASHBURN,ALDI,,,,,,,41.7409110654,-87.7409228594
36,ENGLEWOOD,ALDI,,,,,,,41.7799200473,-87.6409255107
37,AVALON PARK,ALDI,,,,,,,41.736915345999996,-87.59365662180002
38,LOWER WEST SIDE,ALDI,,,,,,,41.8521511995,-87.67007460190003
39,AUBURN GRESHAM,ALDI,,,,,,,41.7302972736,-87.6433090924
40,SOUTH DEERING,ALDI,,,,,,,41.722466241999996,-87.56667305209999
41,AUSTIN,ALDI,,,,,,,41.8673156479,-87.76559794299999
42,WEST PULLMAN,ALDI,,,,,,,41.6849606404,-87.64302230959998
43,CHICAGO LAWN,ALDI,,,,,,,41.7839658423,-87.6836233778
44,BELMONT CRAGIN,ALDI,,,,,,,41.9237604017,-87.7887477626
45,UPTOWN,ALDI,,,,,,,41.9637889643,-87.6566064924
46,EAST SIDE,ALDI,,,,,,,41.703662360900005,-87.5257124268
47,GREATER GRAND CROSSING,ALDI,,,,,,,41.760880872,-87.6246657846
48,NEW CITY,ALDI,,,,,,,41.8087413884,-87.6629116285
49,ASHBURN,ALDI,,,,,,,41.756035091,-87.6828583216
50,AVONDALE,ALDI,,,,,,,41.9394051879,-87.7109005918
51,BRIDGEPORT,ALL STAR FOOD & LIQUOR,,,,,,,41.841484039099996,-87.6580219776
52,CALUMET HEIGHTS,ALLA'S FOOD,,,,,,,41.726240348699996,-87.57429226110001
53,NEW CITY,ALMUFLIHI FOOD & LIQUOR,,,,,,,41.7958707987,-87.6453441182
54,AVALON PARK,AM-PM FOOD MART & CELLULAR,,,,,,,41.7371462539,-87.5770809934
55,CHATHAM,ANAR INC,,,,,,,41.7512179339,-87.6014014102
56,ALBANY PARK,ANDYS FRUIT RANCH,,,,,,,41.967629159699996,-87.70830368729997
57,NEAR WEST SIDE,ARISTA FOODS,,,,,,,41.8834021216,-87.65572529309998
58,LOGAN SQUARE,ARMITAGE PRODUCE INC,,,,,,,41.9175624189,-87.7117551087
59,ROGERS PARK,AROUND THE CLOCK,,,,,,,42.0192651821,-87.6715720734
60,WASHINGTON HEIGHTS,ASHLAND FOOD AND LIQUORS,,,,,,,41.7213269867,-87.66253365850002
61,NEAR WEST SIDE,ATHENS GROCERY,,,,,,,41.8771621281,-87.6473642897
62,DUNNING,AVENUE FOOD MAR INC,,,,,,,41.938237376,-87.7977603483
63,WEST RIDGE,AWAMI BAZAAR & ZABIHA MEAT,,,,,,,41.9978536894,-87.6890642657
64,EAST GARFIELD PARK,B & H FOOD & GROCERY,,,,,,,41.872350043000004,-87.7032726418
65,HEGEWISCH,Baltimore Food & Liquor,,,,,,,41.6529646117,-87.54729865280001
66,WEST TOWN,BARI,,,,,,,41.8912101212,-87.6555602414
67,DUNNING,BERBATE FRUIT MARKET,,,,,,,41.9527315616,-87.7866984426
68,LINCOLN PARK,BIG APPLE FINER FOODS INC,,,,,,,41.9249661791,-87.639926019
69,AUSTIN,BOB'S LIQUORS & GROCERIES,,,,,,,41.8802960895,-87.7524941982
70,LOOP,BOCKWINKELS,,,,,,,41.886339416,-87.62083615
71,PORTAGE PARK,BOULEVARD FOOD & LIQUOR LLC,,,,,,,41.9531825896,-87.77525937530001
72,UPTOWN,BROADWAY SUPERMARKET,,,,,,,41.9711711808,-87.659580975
73,ROGERS PARK,BUDGET FINER FOODS,,,,,,,42.0027261067,-87.66093836639999
74,LOOP,BURNHAM PLAZA MART,,,,,,,41.871444196300004,-87.62607513030001
75,WEST ENGLEWOOD,BUSY BEE SUPERMARKET,,,,,,,41.7904800194,-87.66434506569998
76,ROSELAND,BUY -N- SAVE,,,,,,,41.7071353216,-87.61824172989998
77,WEST TOWN,CAESAR'S FOODS INC,,,,,,,41.8977792769,-87.6769588663
78,BEVERLY,"CALABRIA IMPORTS, INC.",,,,,,,41.706473324499996,-87.6693549885
79,PORTAGE PARK,"CALMA OPTIMAL DELI, INC.",,,,,,,41.9458951009,-87.7566458523
80,SOUTH LAWNDALE,CARNICERIA DEL RIO,,,,,,,41.8520347381,-87.6936969081
81,WEST PULLMAN,CARNICERIA EL PORVENIR,,,,,,,41.684063198000004,-87.6187429679
82,BELMONT CRAGIN,CARNICERIA GUANAJUATO,,,,,,,41.9241891458,-87.75822974120001
83,AVONDALE,CARNICERIA GUANAJUATO #3,,,,,,,41.938569715300005,-87.6979459455
84,WEST TOWN,CARNICERIA GUANJUATO #3,,,,,,,41.908115373899996,-87.6677638335
85,LOGAN SQUARE,CARNICERIA JIMENEZ #2,,,,,,,41.924628320500005,-87.72395332100002
86,HUMBOLDT PARK,CARNICERIA JIMENEZ INC,,,,,,,41.9099252471,-87.73155721629999
87,ROGERS PARK,CARNICERIA LA AZTECA,,,,,,,42.0109629527,-87.6742146577
88,GAGE PARK,CARNICERIA LA GLORIA,,,,,,,41.8009692763,-87.68872209870001
89,GAGE PARK,"CARNICERIA LA GLORIA NO. 2, INC.",,,,,,,41.7938118263,-87.6931506024
90,CHICAGO LAWN,"CARNICERIA LA HACIENDA, INC.",,,,,,,41.786024401,-87.7106047774
91,AVONDALE,"CARNICERIA LA MEJOR PRODUCE, INC.",,,,,,,41.9343143994,-87.7157719991
92,BELMONT CRAGIN,CARNICERIA LA VILLA #2,,,,,,,41.919774901,-87.7707265258
93,HERMOSA,CARNICERIA RICARDO,,,,,,,41.9315407469,-87.7375725127
94,HERMOSA,CARNICERIA&FRUTERIA EL MITOTE,,,,,,,41.9388195147,-87.73943380280001
95,HUMBOLDT PARK,CENTRAL PARK FOODS INC,,,,,,,41.9024736738,-87.71681746530001
96,GAGE PARK,CENTRO MARKET,,,,,,,41.799257043699996,-87.7035747066
97,BELMONT CRAGIN,CERMAK PRODUCE,,,,,,,41.9316414204,-87.74671991059998
98,HERMOSA,CERMAK PRODUCE,,,,,,,41.9169344398,-87.7363871475
99,LOWER WEST SIDE,CERMAK PRODUCE,,,,,,,41.8521678636,-87.66897504069998
100,SOUTH LAWNDALE,CERMAK PRODUCE,,,,,,,41.844366728699995,-87.7078980538
101,WEST ELSDON,CERMAK PRODUCE,,,,,,,41.79799187,-87.7234437408
102,IRVING PARK,CERMAK PRODUCE,,,,,,,41.9585967247,-87.7083095759
103,MCKINLEY PARK,CERMAK PRODUCE #5 LTD,,,,,,,41.8313499001,-87.67584784790002
104,WEST TOWN,CERMAK PRODUCE NO.4,,,,,,,41.9101322404,-87.69460039389999
105,IRVING PARK,CHARLIES  SUPERMARKET INC.,,,,,,,41.9611144263,-87.7025869386
106,CHATHAM,CHATHAM FOOD MARKET,,,,,,,41.750972675300005,-87.6169578802
107,NORTH PARK,CHICAGO FOOD CORP,,,,,,,41.9859279924,-87.7286634185
108,WEST RIDGE,CHICAGO GROCERS,,,,,,,41.997945885300005,-87.683568705
109,NEAR NORTH SIDE,Chicago Health - Maple Street,,,,,,,41.9019825524,-87.6292631031
110,ALBANY PARK,CHICAGO PRODUCE,,,,,,,41.9684853733,-87.7158713295
111,PORTAGE PARK,CICERO DELI INC.,,,,,,,41.93904667,-87.7470219655
112,NEAR NORTH SIDE,CITY GROCERY,,,,,,,41.8894653288,-87.6265092736
113,UPTOWN,CLARENDON FOOD MART INC,,,,,,,41.9580048015,-87.6496537356
114,NORTH CENTER,CLYBOURN MARKET,,,,,,,41.9325791837,-87.678327456
115,SOUTH DEERING,COMMERCIAL GROCERY,,,,,,,41.7134978435,-87.55073310659998
116,EDGEWATER,CORCORANS PANTRY INC,,,,,,,41.9835447852,-87.6582676725
117,WOODLAWN,COTTAGE GROVE FOOD MART,,,,,,,41.7801519592,-87.60577752409998
118,MORGAN PARK,COUNTY FAIR FOODS,,,,,,,41.6972382088,-87.68147480420002
119,WEST GARFIELD PARK,CRESPO'S FOOD MART,,,,,,,41.880504995,-87.7351228503
120,IRVING PARK,CUENCA'S BAKERY & GROCERIES,,,,,,,41.9607675196,-87.73394692709999
121,GAGE PARK,CUPBOARD FOOD & LIQUOR,,,,,,,41.793589179499996,-87.7059457835
122,WEST ENGLEWOOD,D & A FOOD & LIQUOR,,,,,,,41.793554363,-87.6646375512
123,LOGAN SQUARE,DANNY'S FRESH MARKET,,,,,,,41.921096268,-87.68767101290001
124,ROGERS PARK,DEVON MARKET,,,,,,,41.9982282538,-87.66710446649998
125,MORGAN PARK,DIA FOOD & LIQUOR,,,,,,,41.684955798400004,-87.659725829
126,LOWER WEST SIDE,DILILAH GROCERY,,,,,,,41.8539678804,-87.6708701882
127,CHATHAM,DISCOUNT MEAT COMPANY,,,,,,,41.7506874405,-87.6333809292
128,WEST LAWN,DISCOUNT PANTRY CORPORATION,,,,,,,41.7784929073,-87.727327519
129,AUBURN GRESHAM,DOLLAR & LINEN,,,,,,,41.7355890742,-87.66995172629998
130,HERMOSA,DOLLAR DEALS & UP,,,,,,,41.9188912639,-87.726465315
131,WEST RIDGE,DOMINICK'S,,,,,,,42.0022233751,-87.680128828
132,MCKINLEY PARK,DOMINICK'S # 1100,,,,,,,41.8364683477,-87.6655669021
133,NORWOOD PARK,DOMINICK'S # 113/1113,,,,,,,41.9959852861,-87.78763711709999
134,EDGEWATER,DOMINICK'S # 12/0012,,,,,,,41.9911817534,-87.6601550832
135,SOUTH SHORE,DOMINICK'S # 130/1130,,,,,,,41.7659900011,-87.57378733670002
136,LINCOLN PARK,DOMINICK'S # 304/2304,,,,,,,41.9278717231,-87.67325881459999
137,NORTH CENTER,DOMINICK'S # 86/1086,,,,,,,41.9427471952,-87.6883543215
138,NEAR WEST SIDE,DOMINICK'S #147/1147,,,,,,,41.8645211937,-87.6393040996
139,NEAR NORTH SIDE,DOMINICK'S #153/2153,,,,,,,41.9038839611,-87.6394372016
140,ROGERS PARK,DOMINICK'S #160/1698,,,,,,,42.0192885501,-87.6750585094
141,NEAR NORTH SIDE,Dominick's #1703,,,,,,,41.8916898398,-87.6204441348
142,NEAR WEST SIDE,DOMINICK'S #1875,,,,,,,41.8818156316,-87.64721471700001
143,LINCOLN SQUARE,DOMINICKS #2889,,,,,,,41.9768950984,-87.69227966780001
144,EDGEWATER,DOMINICKS #2890,,,,,,,41.976481667600005,-87.6548397772
145,WEST TOWN,DOMINICK'S FINER FOODS - STORE # 2775,,,,,,,41.8957852296,-87.6779308926
146,LINCOLN PARK,"DOMINICK'S Finer Foods, Inc. #1695",,,,,,,41.9252682757,-87.6534875641
147,NEW CITY,E.M. GROCERIES,,,,,,,41.7961289732,-87.6514349028
148,HUMBOLDT PARK,EDDIE & SON FOOD &LIQ.,,,,,,,41.9100926711,-87.71757535319998
149,WEST ENGLEWOOD,EDDIE'S FOOD MART,,,,,,,41.7794611564,-87.67143667149998
150,ROSELAND,"EDDIE'S SUNSHINE FOOD & LIQUOR,  INC.",,,,,,,41.6978179235,-87.6210110036
151,ROGERS PARK,EDDY'S FOOD MART,,,,,,,42.019164625,-87.668397288
152,EDGEWATER,EDGEWATER PRODUCE,,,,,,,41.981971377,-87.6683210323
153,WEST TOWN,EL  PASEO  BORICUA,,,,,,,41.9030542001,-87.6947704208
154,HUMBOLDT PARK,EL BARRIO GROCERY,,,,,,,41.9100080401,-87.7254384633
155,SOUTH LAWNDALE,EL MILAGRO,,,,,,,41.844687327399996,-87.702102936
156,LOGAN SQUARE,EL YUNQUE FOOD & LIQUOR,,,,,,,41.9157610232,-87.6972958109
157,LOGAN SQUARE,EMILIO'S PRODUCE,,,,,,,41.9225974657,-87.6970976291
158,NEAR NORTH SIDE,EUROPA GALLERIA INC,,,,,,,41.8956627719,-87.637220715
159,WEST ENGLEWOOD,EXTRA VALUE FOOD & LIQUOR,,,,,,,41.7796146658,-87.6640774893
160,UPTOWN,"MY RANCH, INC.",,,,,,,41.9669775683,-87.6549446417
161,LOWER WEST SIDE,FAIRPLAY FINER FOOD,,,,,,,41.8519838396,-87.6857857042
162,NEW CITY,FAIRPLAY FINER FOODS INC,,,,,,,41.809629768,-87.6457075651
163,MORGAN PARK,FAIRPLAY FOODS INC,,,,,,,41.691679204,-87.6797791725
164,SOUTH SHORE,FAIRWAY FOOD,,,,,,,41.7520053919,-87.5540154169
165,MOUNT GREENWOOD,FAMILY PRIDE,,,,,,,41.7003552742,-87.7205408964
166,WEST RIDGE,FARM SUPER MARKET,,,,,,,41.9976669579,-87.68721345600002
167,CHICAGO LAWN,FIESTA SUPERMARCADO,,,,,,,41.7788185771,-87.70590357549999
168,SOUTH CHICAGO,FIRST CHOICE MARKET,,,,,,,41.7299778712,-87.5503825944
169,AUBURN GRESHAM,FIVE STAR CERTIFIED INC,,,,,,,41.7359084057,-87.64742288030001
170,AUSTIN,FOOD 4 LESS,,,,,,,41.9095051477,-87.74695993629999
171,CHATHAM,FOOD 4 LESS,,,,,,,41.7363800456,-87.62750921899998
172,WEST ENGLEWOOD,Food 4 Less Midwest,,,,,,,41.7657907704,-87.66396688649998
173,NEW CITY,FOOD 4 LESS,,,,,,,41.809668528,-87.6751156964
174,ENGLEWOOD,FOOD BASKET,,,,,,,41.763181195,-87.64421502100002
175,LOGAN SQUARE,FOODSMART,,,,,,,41.9318527752,-87.7129012497
176,LOGAN SQUARE,FOODSMART,,,,,,,41.9173585451,-87.69934106870001
177,WOODLAWN,FRESH BUY FOODS INC,,,,,,,41.7796646515,-87.6142509361
178,WEST RIDGE,FRESH FARMS INTERNATIONAL,,,,,,,41.9977359091,-87.69592888049999
179,BELMONT CRAGIN,FRESH MARKET PLACE,,,,,,,41.9276476796,-87.76626652110001
180,SOUTH LAWNDALE,FRUTERIA EL MERCADO,,,,,,,41.8409331636,-87.7072241769
181,MCKINLEY PARK,FURTERIA EL SERRANITO,,,,,,,41.8248606245,-87.6700230192
182,SOUTH LAWNDALE,GAYTAN GROCERY STORE,,,,,,,41.8403086304,-87.73310705899998
183,BRIGHTON PARK,GEMELOS FOOD/ CHECK CASHING SERVICES,,,,,,,41.815432001,-87.69579779
184,PORTAGE PARK,GENE'S SAUSAGE SHOP & DELI INC,,,,,,,41.9387619658,-87.7604070714
185,LINCOLN SQUARE,GENES SAUSAGE SHOP AT DELI MEYER,,,,,,,41.9677536575,-87.6881717161
186,ARCHER HEIGHTS,GILMART'S  FOOD & LIQUOR,,,,,,,41.8014000331,-87.7260437419
187,NEW CITY,GOLDMORE FOOD,,,,,,,41.801127809099995,-87.6740803441
188,BELMONT CRAGIN,GRAND FOOD MARKET,,,,,,,41.9170677465,-87.7560413324
189,GREATER GRAND CROSSING,"GRAND PALACE SUPERMARKET, INC",,,,,,,41.7645736329,-87.6247399651
190,ENGLEWOOD,"H & A FOOD MARKET, INC.",,,,,,,41.7795645849,-87.6499748357
191,LOGAN SQUARE,H & Z GROCERY STORE,,,,,,,41.928345251399996,-87.71867089950001
192,ROGERS PARK,HALAL MEAT & GROCERY,,,,,,,41.9982373871,-87.6661711005
193,EDISON PARK,HAPPY FOODS,,,,,,,42.0043992612,-87.8184857554
194,FOREST GLEN,HAPPY FOODS,,,,,,,41.997860013899995,-87.7634457986
195,LOOP,HARBOR MARKET,,,,,,,41.8847505385,-87.6156039565
196,NEW CITY,HAREER FOOD & LIQUOR,,,,,,,41.7945591033,-87.6453134277
197,HYDE PARK,HARPER FOODS,,,,,,,41.7914105694,-87.58953262780001
198,LINCOLN SQUARE,HARVESTIME FOODS,,,,,,,41.9686702259,-87.6951627475
199,HEGEWISCH,Hegewisch Fruit Market Inc.,,,,,,,41.6551885903,-87.54699941850002
200,ROSELAND,HILLTOP LIQUORS MART,,,,,,,41.7072479748,-87.62005636399998
201,UPTOWN,HOA NOM CO,,,,,,,41.9731612999,-87.65783317959999
202,EDGEWATER,HOLLYWOOD TOWER MKT,,,,,,,41.985638421,-87.6550943233
203,ARMOUR SQUARE,HONG KONG MARKET,,,,,,,41.8482371659,-87.6409555275
204,HYDE PARK,"HYDE PARK PRODUCE, LTD",,,,,,,41.7995768022,-87.59551292190002
205,UPTOWN,IMPERIAL TOWER MARKET,,,,,,,41.960019954,-87.6469060276
206,HERMOSA,INTERNATIONAL FOODS NW INC,,,,,,,41.9244726356,-87.736789505
207,NEW CITY,INTERNATIONAL SUPERMARKET INC,,,,,,,41.8105656774,-87.6651705169
208,BELMONT CRAGIN,J & A ORIENTAL FOOD MART,,,,,,,41.9237993545,-87.77063323639999
209,PORTAGE PARK,J & J EUROPEAN DELI,,,,,,,41.9677648001,-87.7770202043
210,IRVING PARK,J AND P FINER FOODS,,,,,,,41.9609885935,-87.7156463163
211,ENGLEWOOD,J K & S FOOD & LIQUOR,,,,,,,41.7870390747,-87.6378127282
212,RIVERDALE,J R GROCERY STORE,,,,,,,41.6517610645,-87.6093666123
213,GRAND BOULEVARD,JAMAICA FOOD & LIQUOR INC,,,,,,,41.8170297652,-87.6068579199
214,WASHINGTON PARK,JARDAN FOOD & LIQUOR,,,,,,,41.7943249341,-87.6185206053
215,ALBANY PARK,JERUSALEM LIQUORS,,,,,,,41.9683547002,-87.7073943249
216,NEAR SOUTH SIDE,JEWEL,,,,,,,41.8667243541,-87.6259611484
217,MORGAN PARK,JEWEL,,,,,,,41.680332205300004,-87.66258467870001
218,SOUTH SHORE,JEWEL,,,,,,,41.7578056585,-87.58626825799999
219,DOUGLAS,JEWEL,,,,,,,41.8330447382,-87.6146113644
220,CHICAGO LAWN,JEWEL,,,,,,,41.7830611377,-87.68359886969999
221,SOUTH DEERING,JEWEL,,,,,,,41.7222631981,-87.5829176346
222,MOUNT GREENWOOD,JEWEL,,,,,,,41.7063128446,-87.6997671192
223,EAST SIDE,JEWEL,,,,,,,41.7028060951,-87.5277040116
224,WEST ELSDON,JEWEL,,,,,,,41.7961975914,-87.7233918834
225,WASHINGTON HEIGHTS,JEWEL,,,,,,,41.7229412182,-87.66286287129999
226,CHATHAM,JEWEL,,,,,,,41.7361451282,-87.62691784399998
227,NEAR NORTH SIDE,JEWEL,,,,,,,41.9042652283,-87.6316032946
228,DUNNING,JEWEL,,,,,,,41.953010233200004,-87.7877071626
229,WEST TOWN,JEWEL,,,,,,,41.906243703099996,-87.6698622813
230,PORTAGE PARK,JEWEL,,,,,,,41.966797111999995,-87.76729948059997
231,NORWOOD PARK,JEWEL,,,,,,,41.9745429477,-87.8113468842
232,MCKINLEY PARK,JEWEL,,,,,,,41.8275838968,-87.6824544425
233,NEAR WEST SIDE,JEWEL,,,,,,,41.8662541761,-87.66652414010002
234,BELMONT CRAGIN,JEWEL,,,,,,,41.9262969563,-87.78569482399998
235,NEAR NORTH SIDE,JEWEL,,,,,,,41.8924213661,-87.6282348711
236,EDGEWATER,JEWEL,,,,,,,41.982189884600004,-87.66865162799999
237,LAKE VIEW,JEWEL,,,,,,,41.9354720327,-87.66865454309998
238,NORTH PARK,JEWEL,,,,,,,41.9756241124,-87.7298445616
239,EDGEWATER,JEWEL,,,,,,,41.9794282549,-87.6598058547
240,NORTH CENTER,JEWEL,,,,,,,41.959100433,-87.6823922417
241,UPTOWN,JEWEL,,,,,,,41.9613977799,-87.6545929748
242,AVONDALE,JEWEL,,,,,,,41.946057604,-87.7082301098
243,OHARE,JEWEL,,,,,,,41.9660114013,-87.8368311691
244,NORTH CENTER,JEWEL,,,,,,,41.943187373200004,-87.6883020207
245,LAKE VIEW,JEWEL,,,,,,,41.9463846516,-87.6465248633
246,GARFIELD RIDGE,JEWEL,,,,,,,41.794354853200005,-87.77052715209999
247,PORTAGE PARK,JEWEL,,,,,,,41.953554438400005,-87.7450553112
248,LAKE VIEW,JEWEL,,,,,,,41.9480045508,-87.6641862307
249,ALBANY PARK,JOE'S FOOD & LIQUOR,,,,,,,41.968445246,-87.7194165758
250,BELMONT CRAGIN,JOE'S FOOD AND LIQUOR DEPOT,,,,,,,41.9239918266,-87.7722891067
251,JEFFERSON PARK,JOLANTA'S INTERNATIONAL DELI,,,,,,,41.9727914969,-87.7763718583
252,DUNNING,JOSEPH FOOD MART,,,,,,,41.9520185577,-87.83316684340002
253,NEW CITY,K & K FOOD & LIQUOR,,,,,,,41.8015768439,-87.6537884728
254,WEST LAWN,K BUENA,,,,,,,41.7713833198,-87.73095336889999
255,WEST RIDGE,KAMDAR PLAZA INC,,,,,,,41.9977219015,-87.6966411029
256,NEAR SOUTH SIDE,"Kan-Zaman Mart, Inc.",,,,,,,41.855317671,-87.6237265152
257,BRIGHTON PARK,KAPS FOODS,,,,,,,41.8283836447,-87.69462017
258,RIVERDALE,KEY FOOD LIQUOR,,,,,,,41.6519728186,-87.61708373629999
259,ROSELAND,KHALIL FOOD & LIQUOR,,,,,,,41.707218139,-87.6277515583
260,ENGLEWOOD,KING FOOD & LIQUOR,,,,,,,41.7689262968,-87.644655997
261,WEST RIDGE,KOL TUV KOSHER FOODS INC,,,,,,,41.9976012808,-87.7036126719
262,JEFFERSON PARK,KORDIAN'S MARKET,,,,,,,41.9759840467,-87.7865613104
263,PORTAGE PARK,"KRAKUS DELI,  INC",,,,,,,41.9458951009,-87.7566458523
264,LOWER WEST SIDE,LA CASA DEL PUEBLO INC,,,,,,,41.8574527464,-87.66168833110001
265,EAST SIDE,LA CIENEGA SUPER FOOD INC,,,,,,,41.699814846500004,-87.53542689049999
266,SOUTH DEERING,LA FERIA GROCERY,,,,,,,41.7189121563,-87.55117429719999
267,HERMOSA,LA GUERRERENSE,,,,,,,41.9170000028,-87.73098926450001
268,BRIGHTON PARK,LA INTERNATIONAL,,,,,,,41.815300693699996,-87.7020416008
269,SOUTH LAWNDALE,LA JALISCIENCE,,,,,,,41.8443879922,-87.7064970959
270,BELMONT CRAGIN,"LA LOMA ""CARNICERIA Y TAQUERIA""",,,,,,,41.9270360931,-87.75610618299999
271,SOUTH LAWNDALE,LA MERCED INC,,,,,,,41.8440327965,-87.73243286469999
272,SOUTH LAWNDALE,"LA NUEVA IMAGEN GROCERY, INC.",,,,,,,41.8462971046,-87.71591642950001
273,HUMBOLDT PARK,LA PERLA TAPATIA BAKERY,,,,,,,41.909919754,-87.73197125700001
274,BRIGHTON PARK,LA PLAMA,,,,,,,41.8175793077,-87.69832058629999
275,LOWER WEST SIDE,LA PROVIDENCIA FOOD MART,,,,,,,41.8542193742,-87.6684581591
276,EDGEWATER,"LA UNICA FOOD MART, INC.",,,,,,,41.9979934597,-87.6684278857
277,UPTOWN,LAKE VIEW FOODS INC,,,,,,,41.9570402995,-87.6547628922
278,NEAR NORTH SIDE,L'APPETITO,,,,,,,41.8989485417,-87.62397498770002
279,DUNNING,LARAMIE BAKERY & DELI,,,,,,,41.9389859689,-87.8069290648
280,HUMBOLDT PARK,"LATIN GROCERY & LIQUOR, INC",,,,,,,41.9100494194,-87.72145808389999
281,NORTH LAWNDALE,LAWNDALE FOOD MARKET,,,,,,,41.8588339683,-87.7178671863
282,MONTCLARE,Laxi Liquor,,,,,,,41.923680700300004,-87.79867612860001
283,ARMOUR SQUARE,LEMEN SUN CORP.,,,,,,,41.8416044818,-87.6319155034
284,ALBANY PARK,LINDO MICHOACAN,,,,,,,41.9685727721,-87.70778770129999
285,LOGAN SQUARE,LOGAN CERTIFIED FOODS CORP,,,,,,,41.93197047,-87.699931619
286,BRIGHTON PARK,LORETO GROCERY,,,,,,,41.8100014783,-87.6931813523
287,LOWER WEST SIDE,LOS CUATRO HERMANOS GROCERY,,,,,,,41.8562022212,-87.6577449724
288,AVONDALE,LOS POTRILLOS,,,,,,,41.939309516,-87.7185399405
289,BELMONT CRAGIN,LOS SAUCES GROCERY,,,,,,,41.9312882001,-87.7732414533
290,LOWER WEST SIDE,LUCIANO'S GROCERY-18TH ST,,,,,,,41.8578565675,-87.66941959559998
291,AUBURN GRESHAM,LUX 2 FOOD & LIQUOR,,,,,,,41.7561626996,-87.6528196032
292,MORGAN PARK,M & D VARIETY STORE,,,,,,,41.692319626599996,-87.65466321129999
293,ALBANY PARK,M & J LIQUOR & GROCERY,,,,,,,41.9684345799,-87.7204810114
294,SOUTH CHICAGO,MACIAS PRODUCE INC.,,,,,,,41.7327335949,-87.55117278360001
295,UPTOWN,MAKOLA AFRICAN SUPERMARKET #2,,,,,,,41.9636502775,-87.6546221904
296,LINCOLN SQUARE,MANDY'S LIQUOR,,,,,,,41.9686561373,-87.678438479
297,AUSTIN,MARIO 'S BUTCHER SHOP FD CNTR,,,,,,,41.8800449808,-87.7704933793
298,KENWOOD,MARKET IN THE PARK,,,,,,,41.8028797781,-87.5818436939
299,EAST GARFIELD PARK,MA'S & PA'S GROCERY SNACK SHOP,,,,,,,41.8708776439,-87.6961668842
300,ALBANY PARK,MAYFAIR MARKET PLACE,,,,,,,41.9672666701,-87.72814704780001
301,ARMOUR SQUARE,MAYFLOWER FOOD,,,,,,,41.8542653039,-87.6321895068
302,WEST RIDGE,MEHRAB ZABIHA MEAT & TOBACCO,,,,,,,41.9975920168,-87.69166812190002
303,HUMBOLDT PARK,MELISSA'S FOOD & LIQUORS INC,,,,,,,41.9050594546,-87.72395138450001
304,CHICAGO LAWN,MI MEXICO GROCERY,,,,,,,41.786376343200004,-87.688776514
305,DUNNING,MIARA'S CONT'L PASTRY DELI INC,,,,,,,41.9452338231,-87.8029266385
306,LOWER WEST SIDE,MICELI'S DELI & FOOD MART,,,,,,,41.847020464,-87.6831995522
307,KENWOOD,MICHAELS FRESH MARKET,,,,,,,41.809772726599995,-87.5949608909
308,HUMBOLDT PARK,MID TOWN FOODS,,,,,,,41.9025838739,-87.7236192485
309,SOUTH LAWNDALE,MINI MERCADO LA BETANIA,,,,,,,41.8403965367,-87.7306750125
310,WOODLAWN,MLB FOOD,,,,,,,41.7729559039,-87.6100578109
311,AUSTIN,MOO & OINK INC,,,,,,,41.8805838854,-87.7470529414
312,BELMONT CRAGIN,"MORELIA SUPERMARKET #2, INC.",,,,,,,41.931406291,-87.7479369735
313,WEST RIDGE,"MORELIA SUPERMARKET, INC.",,,,,,,42.0141839829,-87.6903783498
314,ENGLEWOOD,MORGAN FOOD CORP LLC,,,,,,,41.7741289538,-87.6496459973
315,BRIGHTON PARK,MOROLEON FOODS #2 INC.,,,,,,,41.8157711158,-87.6893858973
316,ROGERS PARK,MORSE FOOD AND MEAT MARKET,,,,,,,42.0079949199,-87.6671741467
317,ALBANY PARK,MOUNSEF INTERNATIONAL,,,,,,,41.9677930872,-87.7086027049
318,WASHINGTON PARK,MR G'S FOOD & LIQUOR,,,,,,,41.7894298575,-87.6178403398
319,NEAR NORTH SIDE,MUNCHIES ON LARRABEE,,,,,,,41.9008485875,-87.64325553649998
320,WEST TOWN,Municipal Foods,,,,,,,41.9028592342,-87.6918885843
321,ROSELAND,NANCE FOOD MART,,,,,,,41.6951531575,-87.6278202407
322,WEST PULLMAN,NANCY FOODS INC,,,,,,,41.6702523999,-87.62227195620001
323,ALBANY PARK,NATIONAL FRUIT STOP,,,,,,,41.9682556374,-87.7168773813
324,NORWOOD PARK,Natural Country Deli,,,,,,,41.9984929696,-87.7890953687
325,WEST RIDGE,NAYAB MART,,,,,,,41.9975891244,-87.69183691479998
326,AUBURN GRESHAM,NEIL'S FOOD,,,,,,,41.7528304183,-87.64395052479998
327,CHICAGO LAWN,NEW LA ESTRELLA FOODS INC.,,,,,,,41.7789315569,-87.6984170935
328,EAST GARFIELD PARK,NEW POP-IN,,,,,,,41.8754237451,-87.7058203625
329,HUMBOLDT PARK,NICKEL LIQUOR & MINI MART INC,,,,,,,41.9026337556,-87.7179312389
330,WEST RIDGE,NOOR MEAT,,,,,,,41.997573805900004,-87.69254859879999
331,AUSTIN,NORTHWEST FOOD & LIQUOR,,,,,,,41.9096148952,-87.7554779679
332,CHICAGO LAWN,"OGIES FOOD, INC",,,,,,,41.7683658358,-87.68830090770003
333,AUSTIN,OHIO FOOD MART,,,,,,,41.8910492873,-87.75973283729998
334,UPTOWN,OLD WORLD MARKET,,,,,,,41.975475398600004,-87.6596970117
335,CHICAGO LAWN,OLIVE MOUNT MART,,,,,,,41.7789401249,-87.71186857229998
336,WEST GARFIELD PARK,ONE STOP,,,,,,,41.8804994508,-87.735595961
337,KENWOOD,ONE STOP FOOD & LIQUOR STORE,,,,,,,41.8168651481,-87.5986888442
338,UPTOWN,ORIENTAL ASIA MARKET INC.,,,,,,,41.9725559281,-87.6550576698
339,NEAR NORTH SIDE,ORLEANS MARKET,,,,,,,41.8908642852,-87.6363291879
340,WOODLAWN,OSAMA FOOD MART,,,,,,,41.7729575221,-87.6099733981
341,BRIDGEPORT,OUTLET KINGDOM,,,,,,,41.831074943699996,-87.64597111219999
342,HUMBOLDT PARK,P & I FOOD & LIQUOR INC.,,,,,,,41.9027068139,-87.7310180698
343,WEST RIDGE,PAR BIRDIE FOODS,,,,,,,41.9979009735,-87.68637821790001
344,CHICAGO LAWN,"PARK FOODS OF 71ST STREET,INC.",,,,,,,41.7647171389,-87.6887509815
345,NEW CITY,"PARK PACKING OF CHICAGO, INC.",,,,,,,41.8191594443,-87.66423535540001
346,LOOP,PARKSHORE MARKET LTD,,,,,,,41.8861772806,-87.6155996011
347,WEST RIDGE,PATEL BROS,,,,,,,41.9977473006,-87.69525115809998
348,LAKE VIEW,PAULINA MARKET,,,,,,,41.945254158400004,-87.6723897932
349,ROGERS PARK,PAULINA SUPER MARKET INC,,,,,,,42.020087315,-87.6732345632
350,NEAR WEST SIDE,PEORIA PACKING LTD,,,,,,,41.88558042,-87.6589569108
351,WEST GARFIELD PARK,PERSONAL LIQUORS INC,,,,,,,41.8805391992,-87.73221603729998
352,WEST RIDGE,PETERSON FOOD MART,,,,,,,41.9905852147,-87.6935345218
353,HEGEWISCH,PETE'S FRESH MARKET,,,,,,,41.6810595555,-87.5393675414
354,SOUTH LAWNDALE,PETE'S FRESH SUPERMARKET,,,,,,,41.852100653200004,-87.68905111059998
355,GAGE PARK,PETE'S MARKET,,,,,,,41.789112548,-87.7035797266
356,WEST ENGLEWOOD,PETE'S MEAT & GROCERY #2,,,,,,,41.764696121,-87.67359278469999
357,CALUMET HEIGHTS,PETE'S PRODUCE,,,,,,,41.7367954576,-87.5862725091
358,AUBURN GRESHAM,PETE'S PRODUCE,,,,,,,41.7357448514,-87.6587177057
359,LOGAN SQUARE,POLONIA FOOD MART,,,,,,,41.917870715599996,-87.67748061520003
360,NEAR NORTH SIDE,POTASH BROS INC,,,,,,,41.898878197399995,-87.6281111483
361,NEAR NORTH SIDE,POTASH BROS. SUPERMARKET,,,,,,,41.910117944899994,-87.63149089139999
362,CHICAGO LAWN,PRESTIGE LIQUORS,,,,,,,41.7644955967,-87.6833842675
363,WEST TOWN,PUERTO RICO FOOD & LIQUORS,,,,,,,41.8992215766,-87.69173811620001
364,CHICAGO LAWN,QUALITY FOOD ON 71 ST INC,,,,,,,41.7645116769,-87.687986655
365,WEST RIDGE,QUICK STOP FOOD MART,,,,,,,42.0047500731,-87.6994227766
366,HUMBOLDT PARK,QUINTESSENCE,,,,,,,41.909107755,-87.72663414690003
367,LOGAN SQUARE,"R & S DISCOUNT FOOD, WINE, & LIQUOR",,,,,,,41.932046850999996,-87.68897868629999
368,WEST ENGLEWOOD,RAINBOW FINER FOOD & LIQUOR,,,,,,,41.778922405500005,-87.66435268110001
369,WEST ENGLEWOOD,RAINBOW GROCERY,,,,,,,41.7683283348,-87.673819384
370,WEST TOWN,"RICH'S DELI & LIQUOR, INC",,,,,,,41.8974609845,-87.68673855770002
371,LOWER WEST SIDE,RICHWELL MARKET,,,,,,,41.8566571782,-87.6387533453
372,SOUTH LAWNDALE,RIGO'S GROCERY,,,,,,,41.8389367453,-87.7172305546
373,HUMBOLDT PARK,"RIO GRANDE FRUIT MARKET, INC.",,,,,,,41.9099107051,-87.7143855102
374,AUSTIN,RITE PRICE FOOD,,,,,,,41.9022506897,-87.76595092379999
375,LOGAN SQUARE,RIVERSIDE DELI,,,,,,,41.916186115,-87.6701349439
376,DUNNING,RIVIERA FOODS,,,,,,,41.9385912816,-87.8069148007
377,BELMONT CRAGIN,RJ Liquors,,,,,,,41.9240644164,-87.76766048639999
378,SOUTH LAWNDALE,RODRIGUEZ FRUITS & VEGETABLE,,,,,,,41.8463298609,-87.71255139969999
379,ROGERS PARK,ROMAN BROS 1 INC,,,,,,,42.008856472199994,-87.674080374
380,ROSELAND,ROSE-RIDGE FOODS,,,,,,,41.7034152187,-87.62080967909998
381,BRIGHTON PARK,ROYLA BLUE FOODS,,,,,,,41.8139376802,-87.68692201399998
382,SOUTH SHORE,"S & K FOOD & LIQUOR, INC.",,,,,,,41.758992761799995,-87.5603778108
383,MOUNT GREENWOOD,S & T PROVISION CO INC,,,,,,,41.691445910300004,-87.71567310389999
384,UPTOWN,S L PANTRY & GRILL,,,,,,,41.969046674699996,-87.654674059
385,LINCOLN PARK,S. S. FOOD & LIQUOR,,,,,,,41.9263716974,-87.6408000783
386,ENGLEWOOD,SAFAH FOOD & LIQUOR INC,,,,,,,41.7648964002,-87.6539648335
387,ALBANY PARK,SAHAR INTERNATIONAL SUPERMARKET,,,,,,,41.9699575396,-87.7083728782
388,ROGERS PARK,SAM FOOD AND LIQUOR,,,,,,,42.005944816100005,-87.6611747511
389,IRVING PARK,SANABEL GROCERY & BAKERY,,,,,,,41.9579834025,-87.7079959151
390,AUSTIN,SAVE-A-LOT,,,,,,,41.9092745667,-87.765187785
391,SOUTH CHICAGO,SAVE-A-LOT,,,,,,,41.7447308395,-87.5540391375
392,MORGAN PARK,SAVE-A-LOT,,,,,,,41.6995474147,-87.6427519151
393,SOUTH SHORE,SAVE-A-LOT,,,,,,,41.7630223653,-87.5863901619
394,WEST GARFIELD PARK,SAVE-A-LOT,,,,,,,41.8745373122,-87.7255969017
395,KENWOOD,SAVE-A-LOT,,,,,,,41.8094892465,-87.60641742940003
396,AUBURN GRESHAM,SAVE-A-LOT,,,,,,,41.7503223874,-87.6441824061
397,WEST LAWN,SAVE-A-LOT,,,,,,,41.7784159744,-87.7340575715
398,WASHINGTON PARK,Save-A-Lot #882,,,,,,,41.7803216101,-87.61713538040001
399,GREATER GRAND CROSSING,Save-A-Lot #886,,,,,,,41.7509837901,-87.6289614545
400,GRAND BOULEVARD,SAVEWAY FOOD,,,,,,,41.8164863247,-87.61919683139999
401,AUSTIN,SERRELLI'S FOODS,,,,,,,41.909229895,-87.78712882069998
402,LAKE VIEW,SEVEN ELEVEN,,,,,,,41.961523824699995,-87.66603985559998
403,ARCHER HEIGHTS,"SEVEN NINE ELEVEN FOOD MART, INC.",,,,,,,41.8046211506,-87.7199070655
404,GARFIELD RIDGE,SHOP & SAVE MARKET,,,,,,,41.7960196245,-87.7596833672
405,ROSELAND,SHOP WISE FOOD,,,,,,,41.7071739515,-87.6314024214
406,NORTH LAWNDALE,SOLID GOLD,,,,,,,41.866119494,-87.720927574
407,SOUTH SHORE,SOUTH SHORE FOOD MARKET INC.,,,,,,,41.7587872873,-87.5759934845
408,WEST TOWN,STANLEY'S,,,,,,,41.9105746696,-87.66223522940003
409,WEST ENGLEWOOD,STEVE FOOD & LIQUOR,,,,,,,41.7833341838,-87.65474327940002
410,MORGAN PARK,STOP & GO FOOD MART,,,,,,,41.6895747692,-87.6627231456
411,LOGAN SQUARE,STRACK & VAN TIL,,,,,,,41.929489274,-87.68368782489998
412,EDGEWATER,SUN LIQUORS,,,,,,,41.9944657079,-87.6583928132
413,HUMBOLDT PARK,SUNRISE FOOD AND LIQUORS,,,,,,,41.895314759,-87.72019984149998
414,WEST ENGLEWOOD,"SUPER DOLLAR AND UP 4, INC.",,,,,,,41.7868526305,-87.6646155793
415,NEW CITY,SUPER DOLLAR DISCOUNT,,,,,,,41.8066939242,-87.6647716526
416,EDGEWATER,"SUPER FOOD & LIQUORS, INC.",,,,,,,41.983563915,-87.657146291
417,NEW CITY,SUPER FURNITURE & FOOD MART,,,,,,,41.7978225881,-87.6645368783
418,AUSTIN,SUPER JIM'S,,,,,,,41.9021472222,-87.7552393884
419,NEW CITY,SUPER MAS MARKET,,,,,,,41.8087654583,-87.6611701084
420,NEW CITY,SUPER MERCADO EL GUERRO,,,,,,,41.8084712383,-87.6674545133
421,SOUTH LAWNDALE,SUPER MERCADO LA CHIQUITA,,,,,,,41.8442791237,-87.71455376629999
422,NEW CITY,SUPERIOR NUT & CANDY  CO.I INC.,,,,,,,41.820957494,-87.6537783218
423,GARFIELD RIDGE,SUPERMARKET & TAQUERIA CARO,,,,,,,41.807460877800004,-87.747060571
424,SOUTH LAWNDALE,SUPERMERCADO ALEX,,,,,,,41.8369472381,-87.72814236319998
425,ROGERS PARK,SUPERMERCADO CHAPALA,,,,,,,42.0119757995,-87.67438405780001
426,NEW CITY,SUPERMERCADO EL CUBANO INC,,,,,,,41.803782323,-87.6646953279
427,BRIGHTON PARK,SUPERMERCADO EL GUERO #10 INC,,,,,,,41.8205830407,-87.69342616600002
428,LOWER WEST SIDE,SUPERMERCADO EL GUERO NO. 8,,,,,,,41.8520256918,-87.6784122433
429,ROGERS PARK,SUPERMERCADO EL MEXICANO,,,,,,,42.0035849743,-87.67235193190002
430,SOUTH LAWNDALE,SUPERMERCADO GELA'S,,,,,,,41.8424245295,-87.7170303155
431,SOUTH LAWNDALE,SUPERMERCADO GUADALAJARA #2,,,,,,,41.8498575327,-87.70534347709999
432,SOUTH LAWNDALE,SUPERMERCADO GUERRERO,,,,,,,41.8519083675,-87.70287598899998
433,SOUTH LAWNDALE,SUPERMERCADO LA CHIQUTIA # 4,,,,,,,41.8435348913,-87.72438217940002
434,BELMONT CRAGIN,SUPERMERCADO LA VILLA,,,,,,,41.924272713600004,-87.75211503770002
435,SOUTH LAWNDALE,Supermercado Santos,,,,,,,41.8367499608,-87.7261326568
436,WEST LAWN,SUPERMERCADO TEPECOA GUERRERO,,,,,,,41.7786847162,-87.7142516633
437,HUMBOLDT PARK,"SWEQI FOOD MART, INC.",,,,,,,41.9099608832,-87.7288749604
438,PORTAGE PARK,"SZYMANSKI BROS, INC",,,,,,,41.9531497374,-87.77751748770002
439,BELMONT CRAGIN,T & Z MEAT,,,,,,,41.9358159257,-87.74661869719999
440,UPTOWN,TAI NAM CORPORATION,,,,,,,41.972213556999996,-87.6596091001
441,ARMOUR SQUARE,TAI WAH GROCERY,,,,,,,41.8521271977,-87.63214399569998
442,DUNNING,THE CELLAR,,,,,,,41.936613132800005,-87.80684752110001
443,WEST RIDGE,THE FISH KEG INC,,,,,,,42.019394742399996,-87.6860204976
444,LINCOLN PARK,THE MARKET PLACE FOODSTORE,,,,,,,41.9327439571,-87.6422188452
445,AUBURN GRESHAM,THE NEIGHBORHOOD STORE,,,,,,,41.7427877337,-87.6533842508
446,NORWOOD PARK,THE PRODUCE CENTER,,,,,,,41.9872696368,-87.7785157048
447,SOUTH SHORE,The Unit,,,,,,,41.7589223174,-87.5628760391
448,WEST PULLMAN,THE WAREHOUSE,,,,,,,41.6779860017,-87.6362008551
449,WEST TOWN,THREE BROTHER,,,,,,,41.8981068159,-87.6993783779
450,ALBANY PARK,THREE R FOOD,,,,,,,41.961370945,-87.6966693474
451,WEST PULLMAN,"THREE ROOSTERS, INC.",,,,,,,41.6709717654,-87.64153304959999
452,WEST GARFIELD PARK,Three Stars Liquors,,,,,,,41.8858229904,-87.73578781139999
453,UPTOWN,THRIFTY FOOD,,,,,,,41.9655577007,-87.65355927899998
454,WEST TOWN,TIERRA CALIENTE MARKET,,,,,,,41.9071018181,-87.66773965530001
455,LOGAN SQUARE,"TONY'S FINER FOODS ENTERPRISES, INC.",,,,,,,41.924490094,-87.717288131
456,IRVING PARK,"TONY'S FINER FOODS ENTERPRISES, INC.",,,,,,,41.9561262015,-87.7224828263
457,PORTAGE PARK,"TONY'S FINER FOODS ENTERPRISES, INC.",,,,,,,41.9389938243,-87.74269898950001
458,BELMONT CRAGIN,"TONY'S FINER FOODS ENTERPRISES, INC.",,,,,,,41.9258928802,-87.7662048258
459,NORTH CENTER,TRADER JOE'S,,,,,,,41.9499611711,-87.6756711293
460,NEAR NORTH SIDE,TRADER JOE'S,,,,,,,41.8934080204,-87.6264377426
461,LINCOLN PARK,TRADER JOE'S,,,,,,,41.914423714099996,-87.65462784299999
462,NEAR WEST SIDE,TRATTORIA ISABELLA,,,,,,,41.8862936679,-87.6426439206
463,NEAR NORTH SIDE,TREASURE ISLAND FOODS,,,,,,,41.8947983703,-87.6158666457
464,LINCOLN PARK,TREASURE ISLAND FOODS,,,,,,,41.9123117952,-87.63459885549999
465,LINCOLN PARK,TREASURE ISLAND FOODS,,,,,,,41.919899684,-87.6618055364
466,LAKE VIEW,TREASURE ISLAND FOODS,,,,,,,41.9448282656,-87.6458934884
467,NEAR NORTH SIDE,TREASURE ISLAND FOODS INC,,,,,,,41.9030261368,-87.6313487722
468,PULLMAN,TWO BLUE FOODS INC,,,,,,,41.712403787,-87.6051275894
469,ASHBURN,ULTRA FOODS,,,,,,,41.735274089499995,-87.7035112835
470,UPTOWN,VIET HOA PLAZA,,,,,,,41.9731740098,-87.6569923349
471,SOUTH CHICAGO,W & R FOOD & LIQUOR INC,,,,,,,41.7514187003,-87.5822058165
472,CHATHAM,W K R B FOOD & LIQUOR,,,,,,,41.7238602893,-87.60436472079998
473,AVONDALE,WALLY'S INTERNATIONAL MARKET,,,,,,,41.9401778125,-87.72585843479997
474,DUNNING,WALLY'S MARKET INC,,,,,,,41.9527216579,-87.7913622126
475,WEST GARFIELD PARK,WASHINGTON GROCERY,,,,,,,41.8718636117,-87.7290573726
476,NORTH LAWNDALE,"WAY LOW DISCOUNT FOOD, INC.",,,,,,,41.8598459614,-87.705338554
477,NEAR WEST SIDE,WEST HAVEN MARKET & GRILL,,,,,,,41.8831944724,-87.6804664902
478,WEST ELSDON,WEST LAWN FOODS,,,,,,,41.7866084095,-87.72313002889999
479,LAKE VIEW,WHOLE FOODS,,,,,,,41.9415658578,-87.66886040290001
480,FOREST GLEN,WHOLE FOODS,,,,,,,41.9904947718,-87.7484774142
481,NEAR WEST SIDE,WHOLE FOODS,,,,,,,41.8688897111,-87.6390989281
482,LAKE VIEW,WHOLE FOODS,,,,,,,41.948519803,-87.6496701249
483,NEAR NORTH SIDE,WHOLE FOODS,,,,,,,41.894968673200005,-87.62939917870001
484,NEAR NORTH SIDE,WHOLE FOODS,,,,,,,41.9093987878,-87.65305069790001
485,BELMONT CRAGIN,WILLIAM'S PRODUCE,,,,,,,41.9218942299,-87.78339752
486,AUSTIN,WINDY CITY INC,,,,,,,41.8759443554,-87.7452502275
487,WEST RIDGE,WORLD FRESH MARKET,,,,,,,41.997817925999996,-87.6912518856
488,AUBURN GRESHAM,Z & S FOOD & LIQUOR,,,,,,,41.7357569772,-87.65782823469999
489,GREATER GRAND CROSSING,ZEE DOLLAR AND FOOD,,,,,,,41.758293315,-87.6153541087
490,GRAND BOULEVARD,ZIAD CERTIFIED FOODS,,,,,,,41.809322870100004,-87.61333552120001
491,SOUTH CHICAGO,WALGREENS,,,,,,,41.72833654,-87.55286024
492,DOUGLAS,WALGREENS,,,,,,,41.8326245,-87.6168411
493,HYDE PARK,WALGREENS,,,,,,,41.79529732,-87.58782256
494,FULLER PARK,WALGREENS,,,,,,,41.79623488,-87.63040492
495,GREATER GRAND CROSSING,WALGREENS,,,,,,,41.77929761,-87.61574988
496,HUMBOLDT PARK,WALGREENS,,,,,,,41.91071448,-87.72621042
497,SOUTH LAWNDALE,WALGREENS,,,,,,,41.84414469,-87.72477825
498,NEW CITY,WALMART,,,,,,,41.80876829,-87.66098821
499,SOUTH LAWNDALE,PETE'S FRESH SUPERMARKET,,,,,,,41.85210065,-87.68905111
500,NORTH LAWNDALE,SAVE-A-LOT,,,,,,,41.85128849,-87.72385084
501,JEFFERSON PARK,MARIANO'S FRESH MARKET #8507,,,,,,,41.97871026,-87.75715377
502,CLEARING,WALGREENS,,,,,,,41.77795816,-87.7722942
503,CHICAGO LAWN,WALGREENS,,,,,,,41.77842134,-87.70297606
504,PULLMAN,WALMART,,,,,,,41.69631368,-87.59663224
505,GREATER GRAND CROSSING,LOUIS' GROCERIES,,,,,,,41.75655031,-87.60548285
506,WASHINGTON HEIGHTS,,Universal Family Connection,CACFP,ACTIVE,,,,41.748608000000004,
507,AUSTIN,,DMI Information Processing Ctr,CACFP,ACTIVE,,,,41.8732033,
508,CHICAGO HEIGHTS,,Bloom High School,GCFD-MP,INACTIVEFB,,,,41.514187400000004,
509,CHICAGO LAWN,,Food Box-JAMS,FOODBOX,INACTIVEFB,,,,41.7643434,
510,WEST ENGLEWOOD,,Food Box-New Mt. Zion Church,FOODBOX,INACTIVEFB,,,,41.7797411,
511,GRAND BOULEVARD,,Food Box-King Comm Srvc Ctr,FOODBOX,INACTIVEFB,,,,41.816343100000005,
512,WEST PULLMAN,,Food Box-Far So. Comm. Svc Ofc,FOODBOX,INACTIVEFB,,,,41.6771506,
513,KENWOOD,,Food Box-Shiloah Bapt. Chrch,FOODBOX,INACTIVEFB,,,,41.8065057,
514,AUBURN GRESHAM,,Food Box-Englwd Comm Svc Ofc.,FOODBOX,INACTIVEFB,,,,41.7507036,
515,DOUGLAS,,Food Box-Central Advisory Brd.,FOODBOX,INACTIVEFB,,,,41.83647620000001,
516,ASHBURN,,Food Box-HRDI,FOODBOX,INACTIVEFB,,,,41.7449234,
517,CHATHAM,,Food Box-Bethlehem Star,FOODBOX,INACTIVEFB,,,,41.726546,
518,WASHINGTON HEIGHTS,,Food Box-Christ Universal,FOODBOX,INACTIVEFB,,,,41.7292251,
519,ENGLEWOOD,,Food Box- Faith Temple COGIC,FOODBOX,INACTIVEFB,,,,41.763689,
520,ASHBURN,,Food Box-New Foundation of Hop,FOODBOX,INACTIVEAG,,,,41.7447891,
521,WEST ENGLEWOOD,,Food Box-Beautiful Zion Hill,FOODBOX,INACTIVEFB,,,,41.7779653,
522,AUBURN GRESHAM,,Food Box-Rock of Love MB Ch,FOODBOX,INACTIVEFB,,,,41.755006,
523,BURNSIDE,,Food Box-Fellowship House Wall,FOODBOX,INACTIVEFB,,,,41.7265351,
524,WOODLAWN,,Food Box-Two/Woodlawn Org,FOODBOX,INACTIVEFB,,,,41.78074489999999,
525,WOODLAWN,,Food Box-Ministry of the Faith,FOODBOX,INACTIVEFB,,,,41.7841233,
526,GREATER GRAND CROSSING,,Inner-City Missions Network,FOODBOX,ACTIVE,,,,41.759737799999996,
527,ENGLEWOOD,,Community Kitchens -KKC,SOUP KITCH,INACTIVEFB,,,,41.7776961,
528,WEST PULLMAN,,It Take A Village,CDHS-PRO,ACTIVE,,,,41.6708842,
529,GREATER GRAND CROSSING,,Maria Shelter For Homeless Wm.,CDHS-PRO,ACTIVE,,,,41.7615057,
530,AUBURN GRESHAM,,CCHC Amani House,CDHS-PRO,ACTIVE,,,,41.747654,
531,ASHBURN,,Thelma's Place Interim Housing,CDHS-PRO,ACTIVE,,,,41.7470366,
532,AUBURN GRESHAM,,Tab House I,CDHS-PRO,ACTIVE,,,,41.7351283,
533,ASHBURN,,ACADEMY OF LEARNING INC.,DAY CARE,INACTIVEFB,,,,41.7355445,
534,AUBURN GRESHAM,,Auburn Park Day Care/Kndgrn,DAY CARE,INACTIVEFB,,,,41.7504711,
535,CHATHAM,,Tiny Tots Villa Montessori,DAY CARE,INACTIVEAG,,,,41.7465872,
536,KENWOOD,,Hyde Park Academy for Preschoo,DAY CARE,ACTIVE,,,,41.8082071,
537,WEST PULLMAN,,Giant Steps Learning Ctr II,DAY CARE,INACTIVEFB,,,,41.6779857,
538,AUBURN GRESHAM,,Highland Day Care,DAY CARE,ACTIVE,,,,41.754760499999996,
539,GREATER GRAND CROSSING,,Itsy Bitsy People's Place,DAY CARE,INACTIVEAG,,,,41.759727399999996,
540,WASHINGTON HEIGHTS,,Roseland Day Care & Kindergtn.,DAY CARE,ACTIVE,,,,41.702420700000005,
541,WEST PULLMAN,,Children's Center Inc/Outreach,DAY CARE,INACTIVEFB,,,,41.6611994,
542,WEST PULLMAN,,Wentworth Community Services,DAY CARE,INACTIVEFB,,,,41.6822564,
543,AVALON PARK,,Head of The Class Early CDC,DAY CARE,INACTIVEFB,,,,41.7372371,
544,WEST PULLMAN,,Bunnyland Child Care Center #2,DAY CARE,ACTIVE,,,,41.677648,
545,AUBURN GRESHAM,,D & D's Tiny Tots,DAY CARE,INACTIVEAG,,,,41.748279,
546,CHATHAM,,"J.P.E. Day Care Center, Inc",DAY CARE,INACTIVEFB,,,,41.737671999999996,
547,WEST PULLMAN,,Children's Center Outreach,DAY CARE,INACTIVEFB,,,,41.6611994,
548,AUBURN GRESHAM,,Taylor Day School,DAY CARE,INACTIVEFB,,,,41.7360917,
549,WASHINGTON HEIGHTS,,Humpty Dumpty Daycare,DAY CARE,INACTIVEFB,,,,41.7142948,
550,CHATHAM,,Tots Express Learning Center,DAY CARE,INACTIVEAG,,,,41.731463,
551,CALUMET HEIGHTS,,Tots Express Learning Center,DAY CARE,ACTIVE,,,,41.730409,
552,GREATER GRAND CROSSING,,St. Columbanus,FOODBOX,INACTIVEAG,,,,41.765227100000004,
553,GREATER GRAND CROSSING,,Inner-City Missions Network,FOODBOX,INACTIVEFB,,,,41.759737799999996,
554,GREATER GRAND CROSSING,,Vital Bridges South,PANTRY,ACTIVE,,,,41.7581542,
555,ENGLEWOOD,,Will Feed/PEACE Kids Cafe,KIDS CAFE,INACTIVEFB,,,,41.7763169,
556,WASHINGTON PARK,,Dusable Museum,KIDS CAFE,INACTIVEFB,,,,41.7918379,
557,WOODLAWN,,First Presbyterian (MAGIC),KIDS CAFE,INACTIVEFB,,,,41.7783854,
558,GREATER GRAND CROSSING,,The Love Foundation,KIDS CAFE,INACTIVEFB,,,,41.75868699999999,
559,MARKHAM,,Link and Option Ctr Kids Cafe,KIDS CAFE,INACTIVEFB,,,,41.60486960000001,
560,ROBBINS,,"Woodlawn, WRAP, Inc Kids Cafe",KIDS CAFE,INACTIVEAG,,,,41.649096500000006,
561,WOODLAWN,,Living Room Cafe,KIDS CAFE,INACTIVEFB,,,,41.77786280000001,
562,WEST PULLMAN,,Straford Memorial Seventh Day,KIDS CAFE,INACTIVEFB,,,,41.6781,
563,WASHINGTON HEIGHTS,,Victory Cathedral Faith Church,KIDS CAFE,INACTIVEFB,,,,41.703883000000005,
564,CALUMET HEIGHTS,,Wyatt Community Center,KIDS CAFE,INACTIVEAG,,,,41.731746,
565,AVALON PARK,,Sullivan House,KIDS CAFE,INACTIVEAG,,,,41.746008399999994,
566,GREATER GRAND CROSSING,,Gary Comer Youth Center,CACFP,ACTIVE,,,,41.7640694,
567,WASHINGTON PARK,,Washington Park,KIDS CAFE,INACTIVEFB,,,,41.7933831,
568,WEST ENGLEWOOD,,Ogden Park,KIDS CAFE,INACTIVEFB,,,,41.77505120000001,
569,AVALON PARK,,Messiah St. Batholomew,KIDS CAFE,INACTIVEFB,,,,41.744310299999995,
570,BLUE ISLAND,,Blue Island Park District (CM),KIDS CAFE,INACTIVEFB,,,,41.6606127,
571,WASHINGTON PARK,,CREDO (CM),KIDS CAFE,INACTIVEFB,,,,41.7841214,
572,ENGLEWOOD,,Salvation Army Red Shield (CM),KIDS CAFE,INACTIVEFB,,,,41.7685216,
573,SOUTH SHORE,,YMCA- South Side,SFSP,ACTIVE,,,,41.7797445,
574,AUBURN GRESHAM,,Changing Life Educ. Inititive,SFSP,INACTIVEAG,,,,41.7503284,
575,ENGLEWOOD,,Beloved (CM),KIDS CAFE,INACTIVEFB,,,,41.7771158,
576,WASHINGTON PARK,,Dusable Museum,KIDS CAFE,INACTIVEFB,,,,41.7918379,
577,WOODLAWN,,First Presbyterian (MAGIC),KIDS CAFE,INACTIVEFB,,,,41.7783854,
578,DOUGLAS,,Institute for Positive Living,KIDS CAFE,INACTIVEFB,,,,41.828242100000004,
579,WASHINGTON HEIGHTS,,South Side Help Center,CACFP,ACTIVE,,,,41.7044396,
580,WOODLAWN,,Woodlawn Childrens Promise,KIDS CAFE,INACTIVEFB,,,,41.7852617,
581,ENGLEWOOD,,TSA: Englewood Red Shield Cent,CACFP,ACTIVE,,,,41.7685216,
582,ASHBURN,,Daughters of Destiny Min.,KIDS CAFE,INACTIVEFB,,,,41.74989420000001,
583,GREATER GRAND CROSSING,,A Knock at Midnight,CACFP,ACTIVE,,,,41.7564966,
584,WASHINGTON PARK,,Church of the Good Shepherd,KIDS CAFE,INACTIVEAG,,,,41.791096,
585,GREATER GRAND CROSSING,,Inner Cities Mission Network,KIDS CAFE,INACTIVEAG,,,,41.759737799999996,
586,WOODLAWN,,Woodlawn Childrens Promise,KIDS CAFE,INACTIVEAG,,,,41.7852614,
587,BLUE ISLAND,,TSA Blue Island: Rock Day Camp,KIDS CAFE,INACTIVEFB,,,,41.663007799999995,
588,GREATER GRAND CROSSING,,Project Hood- New Begin Church,KIDS CAFE,ACTIVE,,,,41.774035600000005,
589,ROBBINS,,MFS Kellar Middle School,CACFP,INACTIVEAG,,,,41.6363792,
590,BLUE ISLAND,,The Salvation Army,KIDS CAFE,INACTIVEFB,,,,41.663007799999995,
591,WOODLAWN,,Blackstone Bicycle Works,SFSP,ACTIVE,,,,41.7841364,
592,CALUMET PARK,,Community Covenant Church,KIDS CAFE,INACTIVEFB,,,,41.666919,
593,WOODLAWN,,MetroSquash,SFSP,ACTIVE,,,,41.7837162,
594,GREATER GRAND CROSSING,,Chatham-Avalor Nursery School,KIDS CAFE,INACTIVEFB,,,,41.751175700000005,
595,ROSELAND,,Chicago State Univ. Continuing,SFSP,ACTIVE,,,,41.717957500000004,
596,AUBURN GRESHAM,,Christian Community Health,SFSP,ACTIVE,,,,41.747654,
597,ROSELAND,,Christian Stem Scholard Academ,KIDS CAFE,INACTIVEAG,,,,41.7232227,
598,WASHINGTON HEIGHTS,,CHA-Lowden,SFSP,ACTIVE,,,,41.7216974,
599,GRAND BOULEVARD,,CHA- Washington Park 40th,SFSP,ACTIVE,,,,41.82144660000001,
600,DOUGLAS,,CHA- SESS-Giles,SFSP,ACTIVE,,,,41.8295299,
601,BEVERLY,,Triedstone Church,SFSP,ACTIVE,,,,41.7046372,
602,AUBURN GRESHAM,,Operation Restoration,SFSP,ACTIVE,,,,41.7347227,
603,CHATHAM,,Chatham Fields,KIDS CAFE,INACTIVEFB,,,,41.747768,
604,ENGLEWOOD,,Lez Enfants Academy,SFSP,ACTIVE,,,,41.762954799999996,
605,ENGLEWOOD,,Imagine Englewood If,CACFP,ACTIVE,,,,41.769059000000006,
606,WOODLAWN,,HHW School For the Performing,SFSP,ACTIVE,,,,41.7783854,
607,CHATHAM,,St. Mark United Methodist Chur,SFSP,ACTIVE,,,,41.7404821,
608,GREATER GRAND CROSSING,,Chatham Enrichment Center,SFSP,ACTIVE,,,,41.7447157,
609,ENGLEWOOD,,United In Love M.B. Church,KIDS CAFE,INACTIVEFB,,,,41.766533200000005,
610,SOUTH HOLLAND,,PRC Learning Center Inc.,SFSP,ACTIVE,,,,41.6003179,
611,BEVERLY,,Universal Family Connection,SFSP,ACTIVE,,,,41.707037,
612,OAKLAND,,Oakwood Shores,KIDS CAFE,INACTIVEFB,,,,41.824114200000004,
613,GREATER GRAND CROSSING,,House of Prayer and Healing,KIDS CAFE,INACTIVEFB,,,,41.76908299999999,
614,GREATER GRAND CROSSING,,New Everlasting Faith Min,KIDS CAFE,INACTIVEFB,,,,41.76747,
615,SOUTH CHICAGO,,St. Thomas,SFSP,ACTIVE,,,,41.749762,
616,AUBURN GRESHAM,,Southwest Montessori Preschool,KIDS CAFE,ACTIVE,,,,41.7370229,
617,WASHINGTON PARK,,Greater Metro M.B. Church,SFSP,ACTIVE,,,,41.78780099999999,
618,GREATER GRAND CROSSING,,Park Manor Christian Church,SFSP,INACTIVEFB,,,,41.762305,
619,ENGLEWOOD,,CHA - Kennedy King College,SFSP,ACTIVE,,,,41.7802011,
620,GRAND BOULEVARD,,CHA - Washington Park 45th,SFSP,ACTIVE,,,,41.81295129999999,
621,WEST ENGLEWOOD,,St.John Evangelist M.B. Church,KIDS CAFE,INACTIVEFB,,,,41.779837,
622,GREATER GRAND CROSSING,,St. Mark A.M.E. Zion Church,KIDS CAFE,INACTIVEFB,,,,41.7605547,
623,CHATHAM,,New Covenant Life,KIDS CAFE,INACTIVEFB,,,,41.725024100000006,
624,GREATER GRAND CROSSING,,South Shore Drill Team,SFSP,ACTIVE,,,,41.7640694,
625,GREATER GRAND CROSSING,,Martin Temple AME Zion,SFSP,ACTIVE,,,,41.76888659999999,
626,GREATER GRAND CROSSING,,Parkway Garden Apartments,KIDS CAFE,INACTIVEFB,,,,41.7796859,
627,WOODLAWN,,Community Film Workshop of Chi,SFSP,ACTIVE,,,,41.781934299999996,
628,CHATHAM,,True to Life Foundation,SFSP,ACTIVE,,,,41.73713739999999,
629,ENGLEWOOD,,Union Tabernacle Miss Baptist,KIDS CAFE,INACTIVEFB,,,,41.7737032,
630,ENGLEWOOD,,Robeson Football,KIDS CAFE,INACTIVEFB,,,,41.7702519,
631,CHATHAM,,Dorothy Sutton Branch,KIDS CAFE,INACTIVEFB,,,,41.73772109999999,
632,CALUMET HEIGHTS,,Masjid Al Farooq,KIDS CAFE,INACTIVEFB,,,,41.731746,
633,AUBURN GRESHAM,,Providence Missionary Baptist,KIDS CAFE,INACTIVEFB,,,,41.7410416,
634,GRAND BOULEVARD,,Kenwood Oakland Org- Grant Mem,KIDS CAFE,INACTIVEFB,,,,41.817342700000005,
635,CHATHAM,,Commonwealth Community Church,SFSP,ACTIVE,,,,41.747499,
636,HUMBOLDT PARK,,River City Community,SFSP,ACTIVE,,,,41.9036165,
637,WASHINGTON PARK,,Church of the Good Shepherd,SFSP,ACTIVE,,,,41.790940899999995,
638,WEST ENGLEWOOD,,Back to God All Nations Church,KIDS CAFE,INACTIVEFB,,,,41.7609559,
639,GREATER GRAND CROSSING,,True Light Baptist,SFSP,ACTIVE,,,,41.76206810000001,
640,DOUGLAS,,Wildcats Foodball,KIDS CAFE,INACTIVEFB,,,,41.824358600000004,
641,WEST PULLMAN,,Kings Dominion Church,KIDS CAFE,INACTIVEFB,,,,41.682165600000005,
642,ENGLEWOOD,,Antioch Haven Homes,SFSP,ACTIVE,,,,41.7801414,
643,GREATER GRAND CROSSING,,Lighthouse Apostolic Faith,SFSP,ACTIVE,,,,41.7531034,
644,POSEN,,Abounding Life Church,SFSP,ACTIVE,,,,41.627175,
645,GREATER GRAND CROSSING,,Parkway Gardens Christian Chur,SFSP,ACTIVE,,,,41.774168700000004,
646,ENGLEWOOD,,Action Coalition of Englewood,KIDS CAFE,INACTIVEFB,,,,41.7762299,
647,SOUTH SHORE,,"Global Girls, Inc.",CACFP,ACTIVE,,,,41.746709700000004,
648,ENGLEWOOD,,Parker Community Academy,HKM,ACTIVE,,,,41.7708441,
649,WOODLAWN,,Sexton Elementary,HKM,INACTIVEAG,,,,41.7852617,
650,CHATHAM,,Jane A. Neil Elementary,HKM,ACTIVE,,,,41.7386141,
651,WOODLAWN,,Fiske Elementary,HKM,ACTIVE,,,,41.7852617,
652,AUBURN GRESHAM,,Cook Elementary School,HKM,ACTIVE,,,,41.7458533,
653,WEST ENGLEWOOD,,Randolph Elementary,HKM,ACTIVE,,,,41.760634,
654,ASHBURN,,Sarah E. Goode STEM Academy,HKM,ACTIVE,,,,41.7539429,
655,GREATER GRAND CROSSING,,St. Columbanus,GCFD-MP,INACTIVEFB,,,,41.765227100000004,
656,WASHINGTON PARK,,Metro Community Outreach,GCFD-MP,INACTIVEFB,,,,41.78780099999999,
657,WASHINGTON PARK,,Goodlife Food Pantry,GCFD-MP,INACTIVEAG,,,,41.7841214,
658,GREATER GRAND CROSSING,,Inner-City Missions Network,GCFD-MP,ACTIVE,,,,41.759737799999996,
659,GREATER GRAND CROSSING,,Mt.Hermon Missionary Baptist,FOODBOX,INACTIVEFB,,,,41.751150700000004,
660,WOODLAWN,,Cosmopolitan Church of Prayer,FOODBOX,INACTIVEFB,,,,41.7771159,
661,CHATHAM,,Chatham Satellite Senior Cente,FOODBOX,INACTIVEFB,,,,41.7435799,
662,CHATHAM,,Bethlehem Star Baptist Church,FOODBOX,INACTIVEFB,,,,41.726546,
663,ENGLEWOOD,,Hope Organization,FOODBOX,INACTIVEFB,,,,41.7681584,
664,ENGLEWOOD,,Full Gospel Outreach Ministrie,FOODBOX,INACTIVEFB,,,,41.776262700000004,
665,WOODLAWN,,Harris Park -DFSS Service Fair,FOODBOX,INACTIVEFB,,,,41.781934299999996,
666,AUBURN GRESHAM,,Foster Park-DFSS Service Fair,FOODBOX,INACTIVEFB,,,,41.741704399999996,
667,GREATER GRAND CROSSING,,Grand Crossing Park - DFSS SER,FOODBOX,INACTIVEFB,,,,41.7556929,
668,WOODLAWN,,The Woodlawn Organization,FOODBOX,INACTIVEFB,,,,41.78074489999999,
669,SOUTH CHICAGO,,Southeast (Atlas) Center,FOODBOX,INACTIVEFB,,,,41.751292799999995,
670,ENGLEWOOD,,Will Feed Community Org.,GCFD-MP,INACTIVEAG,,,,41.7776961,
671,ROSELAND,,Abbott Park Satellite Senior C,FOODBOX,INACTIVEFB,,,,41.7217117,
672,GREATER GRAND CROSSING,,Mt. Hermon MBC,FOODBOX,INACTIVEFB,,,,41.751150700000004,
673,ENGLEWOOD,,St. Paul Missionary Baptist Ch,FOODBOX,INACTIVEFB,,,,41.7672251,
674,AUBURN GRESHAM,,Changing Life Education Initia,FOODBOX,INACTIVEFB,,,,41.7503284,
675,ROSELAND,,Covenant Faith Church of God,FOODBOX,INACTIVEFB,,,,41.70312020000001,
676,ENGLEWOOD,,Word of God Life Changing Mini,FOODBOX,INACTIVEFB,,,,41.765467,
677,WASHINGTON PARK,,Metro Community Outreach,FOODBOX,INACTIVEFB,,,,41.78780099999999,
678,GREATER GRAND CROSSING,,Inner-City Missions,FOODBOX,INACTIVEFB,,,,41.759737799999996,
679,CALUMET HEIGHTS,,St. Ailbe Men's Ministry,FOODBOX,INACTIVEFB,,,,41.729949,
680,ENGLEWOOD,,Antioch Missionary Baptist,FOODBOX,INACTIVEFB,,,,41.7805714,
681,ENGLEWOOD,,Cry Unto Me Rescue Mission,FOODBOX,INACTIVEFB,,,,41.7631676,
682,POSEN,,Abounding Life Church,GCFD-MP,INACTIVEFB,,,,41.627175,
683,GREATER GRAND CROSSING,,Grand Crossing Park,FOODBOX,INACTIVEFB,,,,41.7560533,
684,WEST PULLMAN,,Glory to Glory Ministries,GCFD-MP,INACTIVEAG,,,,41.671664899999996,
685,WASHINGTON PARK,,Greater Metropolitan MB Church,GCFD-MP,INACTIVEFB,,,,41.78780099999999,
686,MORGAN PARK,,Apostolic Pentecostal Church,GCFD-MP,INACTIVEFB,,,,41.6861939,
687,CALUMET HEIGHTS,,St. Ailbe Men's Ministry,GCFD-MP,INACTIVEFB,,,,41.729949,
688,AVALON PARK,,CICS-Avalon,N4K,INACTIVEAG,,,,41.742929100000005,
689,DOUGLAS,,Mayo School,N4K,INACTIVEAG,,,,41.8269105,
690,AUBURN GRESHAM,,Oglesby School,N4K,INACTIVEAG,,,,41.754786200000005,
691,WEST PULLMAN,,Whistler School,N4K,INACTIVEAG,,,,41.6840389,
692,ENGLEWOOD,,Parker Elementary,N4K,INACTIVEAG,,,,41.7708441,
693,AUBURN GRESHAM,,Oglesby Elementary,N4K,INACTIVEFB,,,,41.754786200000005,
694,DOUGLAS,,Mayo Elementary,N4K,INACTIVEAG,,,,41.8269105,
695,WEST PULLMAN,,Whistler Elementary,N4K,INACTIVEFB,,,,41.6840389,
696,AVALON PARK,,CICS Avalon South Shore Elemen,N4K,INACTIVEFB,,,,41.742929100000005,
697,ENGLEWOOD,,Parker Elementary,N4K,INACTIVEAG,,,,41.7708441,
698,AUBURN GRESHAM,,Cook Elementary,N4K,INACTIVEFB,,,,41.7458533,
699,WOODLAWN,,Woodlawn Community School,N4K,INACTIVEFB,,,,41.773523,
700,AUBURN GRESHAM,,St. Sabina Parish,ONSITE,INACTIVEFB,,,,41.7507333,
701,BLUE ISLAND,,Incarnation Parish Food Pantry,ONSITE,INACTIVEFB,,,,41.661316,
702,WEST ENGLEWOOD,,Back To God Church,ONSITE,INACTIVEFB,,,,41.760624799999995,
703,GREATER GRAND CROSSING,,Shiloh SDA Dorcas Society,ONSITE,INACTIVEFB,,,,41.76720460000001,
704,GREATER GRAND CROSSING,,Salem House Food Pantry,ONSITE,INACTIVEFB,,,,41.7603997,
705,EVERGREEN PARK,,Village Pantry Coalition,ONSITE,INACTIVEFB,,,,41.71475299999999,
706,TINLEY PARK,,Crisis Center for So. Suburbia,ONSITE,INACTIVEFB,,,,41.563659,
707,WEST PULLMAN,,Straford Memorial Church,ONSITE,INACTIVEFB,,,,41.6780982,
708,ENGLEWOOD,,Will Feed Community Org.,ONSITE,INACTIVEFB,,,,41.7776961,
709,AUBURN GRESHAM,,Faith  Pentecostal Holiness,ONSITE,INACTIVEAG,,,,41.747355600000006,
710,GREATER GRAND CROSSING,,Israel Methodist Cmty Church,ONSITE,INACTIVEFB,,,,41.7564458,
711,CALUMET PARK,,Community Covenant Church,ONSITE,INACTIVEFB,,,,41.666919,
712,TINLEY PARK,,Tinley Park Food Pantry,ONSITE,INACTIVEFB,,,,41.5758763,
713,AVALON PARK,,Haven of Rest MBC,ONSITE,INACTIVEFB,,,,41.7510077,
714,MORGAN PARK,,Morgan Park SDA Comm. Srv.,ONSITE,INACTIVEFB,,,,41.6937375,
715,MORGAN PARK,,Maple Morgan Park Food Pantry,ONSITE,INACTIVEFB,,,,41.69349829999999,
716,CRESTWOOD,,Operation Blessing-South,ONSITE,INACTIVEFB,,,,41.640592299999994,
717,WOODLAWN,,LCFS Refugee Settlement,ONSITE,INACTIVEFB,,,,41.78329859999999,
718,KENWOOD,,Hyde Park SDA Soup Kitchen,ONSITE,INACTIVEFB,,,,41.80583370000001,
719,ENGLEWOOD,,Holy Willing Workers of Christ,ONSITE,INACTIVEFB,,,,41.7649814,
720,WASHINGTON HEIGHTS,,Whole Fold Ministries,ONSITE,INACTIVEFB,,,,41.7068733,
721,WASHINGTON HEIGHTS,,Baptist Church Without Spot,ONSITE,INACTIVEFB,,,,41.7241059,
722,WASHINGTON HEIGHTS,,Oakdale Covenant Church,ONSITE,INACTIVEFB,,,,41.722260600000006,
723,ROSELAND,,Sheldon Heights COC Pantry,ONSITE,INACTIVEFB,,,,41.687915000000004,
724,GREATER GRAND CROSSING,,Maria Shelter For Homeless Wm.,ONSITE,INACTIVEFB,,,,41.7615057,
725,TINLEY PARK,,Together We Cope,ONSITE,INACTIVEFB,,,,41.5822286,
726,WEST PULLMAN,,Wentworth Community Services,ONSITE,INACTIVEFB,,,,41.6822564,
727,CHICAGO LAWN,,Abundant Life Food Pantry,ONSITE,INACTIVEFB,,,,41.768546,
728,GREATER GRAND CROSSING,,St. Frances De Paula Shelter,ONSITE,INACTIVEFB,,,,41.7527693,
729,AUBURN GRESHAM,,Greater Mount Hebron MB Church,ONSITE,INACTIVEFB,,,,41.7480227,
730,WASHINGTON HEIGHTS,,Roseland Day Care & Kindergtn.,ONSITE,INACTIVEFB,,,,41.7007245,
731,CALUMET HEIGHTS,,CMHC - Constance,ONSITE,INACTIVEFB,,,,41.736725,
732,MORGAN PARK,,Mt. Calvary Family Needs,ONSITE,INACTIVEFB,,,,41.6919573,
733,AVALON PARK,,Faith Tabernacle Church,ONSITE,INACTIVEFB,,,,41.7456688,
734,AUBURN GRESHAM,,Highland Day Care,ONSITE,INACTIVEFB,,,,41.754760499999996,
735,KENWOOD,,Hyde Park Academy for Preschoo,ONSITE,INACTIVEFB,,,,41.8082071,
736,AUBURN GRESHAM,,Auburn Park Day Care/Kndgrn,ONSITE,INACTIVEFB,,,,41.7504711,
737,AUBURN GRESHAM,,New Joy Divine,ONSITE,INACTIVEFB,,,,41.755063,
738,AUBURN GRESHAM,,Church of Jesus Christ Intern.,ONSITE,INACTIVEFB,,,,41.746459,
739,CHICAGO LAWN,,Sisters of St. Casimir Pantry,ONSITE,INACTIVEFB,,,,41.77110649999999,
740,ROSELAND,,St. James A.M.E. Food Pantry,ONSITE,INACTIVEFB,,,,41.725556299999994,
741,ENGLEWOOD,,Carver MBC Food Pantry,ONSITE,INACTIVEFB,,,,41.76870539999999,
742,GREATER GRAND CROSSING,,Carey Temple AME Food Pantry,ONSITE,INACTIVEFB,,,,41.764384,
743,AVALON PARK,,St. Felicitas Church,ONSITE,INACTIVEFB,,,,41.7426319,
744,ORLAND PARK,,Orland Township Food Pantry,ONSITE,INACTIVEFB,,,,41.6155192,
745,WOODLAWN,,Project Care,ONSITE,INACTIVEFB,,,,41.782375,
746,WOODLAWN,,First Presbyterian Kimbark,ONSITE,INACTIVEFB,,,,41.7783854,
747,ENGLEWOOD,,Zion Temple MBCChurch,ONSITE,INACTIVEFB,,,,41.7667119,
748,CALUMET HEIGHTS,,Vernnon Park Church of God,ONSITE,INACTIVEAG,,,,41.73193870000001,
749,MORGAN PARK,,Morgan Park Pentecostal Church,ONSITE,INACTIVEFB,,,,41.689733000000004,
750,AUBURN GRESHAM,,Family Cares Mission,ONSITE,INACTIVEFB,,,,41.750747,
751,ASHBURN,,Arab American Ed. Council,ONSITE,INACTIVEFB,,,,41.73980529999999,
752,SOUTH SHORE,,Temple of Brotherly Love,ONSITE,INACTIVEFB,,,,41.755042100000004,
753,ENGLEWOOD,,Thresholds Rowan Trees,ONSITE,INACTIVEFB,,,,41.7810693,
754,ENGLEWOOD,,Canaan M.B.C. Food Ministry,ONSITE,INACTIVEFB,,,,41.7409129,
755,AVALON PARK,,Head of The Class Early CDC,ONSITE,INACTIVEFB,,,,41.7372371,
756,ENGLEWOOD,,Englewood UMC Food Pantry,ONSITE,INACTIVEFB,,,,41.777880200000006,
757,WEST PULLMAN,,Redeeming Grace Evang Church,ONSITE,INACTIVEFB,,,,41.6794394,
758,WOODLAWN,,The Living Room Cafe,ONSITE,INACTIVEFB,,,,41.7787348,
759,WEST ENGLEWOOD,,Beautiful Zion Baptist Church,ONSITE,INACTIVEFB,,,,41.7779653,
760,AVALON PARK,,Messiah St. Bartholomew Church,ONSITE,INACTIVEFB,,,,41.744310299999995,
761,ENGLEWOOD,,Community Kitchens -KKC,ONSITE,INACTIVEFB,,,,41.7776961,
762,WASHINGTON HEIGHTS,,Beverly Hills SDA Church,ONSITE,INACTIVEFB,,,,41.72336809999999,
763,AUBURN GRESHAM,,Victory Apostolic Faith Church,ONSITE,INACTIVEFB,,,,41.747124,
764,CHATHAM,,New Bethlehem #4 MBC,ONSITE,INACTIVEFB,,,,41.73336079999999,
765,AUBURN GRESHAM,,Rock of Love MBC,ONSITE,INACTIVEFB,,,,41.7549346,
766,WASHINGTON HEIGHTS,,Greater Tab. MBC: Vincennes,ONSITE,INACTIVEFB,,,,41.7178225,
767,GRAND BOULEVARD,,Ebenezer MBC Food Pantry,ONSITE,INACTIVEFB,,,,41.812841,
768,GREATER GRAND CROSSING,,Parkway Garden Christian CH,ONSITE,INACTIVEFB,,,,41.7746585,
769,GRAND BOULEVARD,,Beatrice Caffrey Youth Svcs,ONSITE,INACTIVEFB,,,,41.809645399999994,
770,BEVERLY,,Triedstone Full Gospel Baptist,ONSITE,INACTIVEFB,,,,41.7046372,
771,WEST PULLMAN,,Glory to Glory Ministries,ONSITE,INACTIVEFB,,,,41.671664899999996,
772,CALUMET CITY,,Thresholds South Suburbs,ONSITE,INACTIVEFB,,,,41.672223200000005,
773,WOODLAWN,,Martin Temple Community Ftn,ONSITE,INACTIVEFB,,,,41.76888659999999,
774,MIDLOTHIAN,,Society of St Vincent de Paul,ONSITE,INACTIVEFB,,,,41.626386600000004,
775,BURNSIDE,,Grant A Wish Inc.,ONSITE,INACTIVEFB,,,,41.72598250000001,
776,AUBURN GRESHAM,,Progressive Beulah Pentecostal,ONSITE,INACTIVEFB,,,,41.73572120000001,
777,CHATHAM,,Chatham-Avalon Ministries,ONSITE,INACTIVEFB,,,,41.73772109999999,
778,BLUE ISLAND,,Blue Cap-Rosie's Corporation,ONSITE,INACTIVEFB,,,,41.650356200000004,
779,MIDLOTHIAN,,New Mercies Community Services,ONSITE,INACTIVEFB,,,,41.625884000000006,
780,WOODLAWN,,St Phillip Lutheran Church,ONSITE,INACTIVEFB,,,,41.7810625,
781,EVERGREEN PARK,,Genesis Place Program,ONSITE,INACTIVEFB,,,,41.7205877,
782,MARKHAM,,Anointed Word Internat'l Min.,ONSITE,INACTIVEFB,,,,41.601048999999996,
783,MARKHAM,,Grace M.B.C. Pantry,ONSITE,INACTIVEFB,,,,41.58689160000001,
784,GREATER GRAND CROSSING,,St. Columbanus,ONSITE,INACTIVEFB,,,,41.765227100000004,
785,MARKHAM,,Link and Option Ctr Kids Cafe,ONSITE,INACTIVEFB,,,,41.60486960000001,
786,ENGLEWOOD,,Will Feed Community KIDS CAFE,ONSITE,INACTIVEFB,,,,41.7763169,
787,OAKLAND,,West Point Baptist Church,ONSITE,INACTIVEFB,,,,41.829410100000004,
788,MORGAN PARK,,Holy Name of Mary,ONSITE,INACTIVEFB,,,,41.690591299999994,
789,CALUMET HEIGHTS,,Wyatt Community Center,ONSITE,INACTIVEAG,,,,41.731746,
790,ROBBINS,,Seed of Faith Ministries,ONSITE,INACTIVEFB,,,,41.6440343,
791,SOUTH CHICAGO,,Sullivan House,KIDS CAFE,INACTIVEFB,,,,41.746008399999994,
792,GREATER GRAND CROSSING,,Gary Comer Youth Center,ONSITE,INACTIVEFB,,,,41.7640694,
793,AUBURN GRESHAM,,Room at the Cross Ministries,ONSITE,INACTIVEFB,,,,41.736062700000005,
794,WASHINGTON PARK,,Metro Community Outreach,ONSITE,INACTIVEFB,,,,41.78780099999999,
795,GREATER GRAND CROSSING,,Greater Acquaintance Religious,ONSITE,INACTIVEFB,,,,41.7805099,
796,WEST PULLMAN,,Lights of Zion Church,ONSITE,INACTIVEFB,,,,41.6821789,
797,HYDE PARK,,METROSquash,ONSITE,INACTIVEAG,,,,41.7933802,
798,CHICAGO LAWN,,Men & Women of God Who Are We,ONSITE,INACTIVEFB,,,,41.7723412,
799,WASHINGTON HEIGHTS,,Covenant Faith Church of God,ONSITE,INACTIVEFB,,,,41.70312020000001,
800,ROBBINS,,Right Start Outreach Center,ONSITE,INACTIVEFB,,,,41.6409119,
801,GREATER GRAND CROSSING,,Global Girls Inc.,ONSITE,INACTIVEFB,,,,41.7556929,
802,WEST PULLMAN,,Christ Church of Chicago,ONSITE,INACTIVEFB,,,,41.659438,
803,AUBURN GRESHAM,,New Gresham,ONSITE,INACTIVEFB,,,,41.7356631,
804,AUBURN GRESHAM,,CCHC Amani House,ONSITE,INACTIVEFB,,,,41.747654,
805,AUBURN GRESHAM,,Greater Mt. Vernon Baptist Ch.,ONSITE,INACTIVEFB,,,,41.7355975,
806,WASHINGTON PARK,,Good Life,ONSITE,INACTIVEFB,,,,41.8210533,
807,WOODLAWN,,Ministry of the Faithful toGod,ONSITE,INACTIVEFB,,,,41.7841233,
808,CALUMET HEIGHTS,,CEDA - Calumet Park,ONSITE,INACTIVEFB,,,,41.664952299999996,
809,AUBURN GRESHAM,,Word of God Life Changing Min.,ONSITE,INACTIVEFB,,,,41.749975799999994,
810,WEST PULLMAN,,Noble Evangelistic Ministries,ONSITE,INACTIVEFB,,,,41.675863,
811,WASHINGTON HEIGHTS,,Gil Gal Ministries NFP,ONSITE,INACTIVEFB,,,,41.7411344,
812,GRAND BOULEVARD,,Harris Temple A.O.H. Church,ONSITE,INACTIVEFB,,,,41.819236700000005,
813,CALUMET HEIGHTS,,St. Ailbe Men's Ministry,ONSITE,INACTIVEFB,,,,41.729949,
814,HYDE PARK,,Blue Gargoyle Community Ser.,ONSITE,INACTIVEFB,,,,41.7919281,
815,CHICAGO LAWN,,Calvary Hill Baptist Church,ONSITE,INACTIVEFB,,,,41.7644396,
816,GREATER GRAND CROSSING,,Inner-City Missions Network,ONSITE,INACTIVEFB,,,,41.759737799999996,
817,DOUGLAS,,Ida B. Wells,GCFD-PM,INACTIVEFB,,,,41.8298799,
818,ENGLEWOOD,,Greater Mount Vernon PY,GCFD-PM,INACTIVEFB,,,,41.7771158,
819,ENGLEWOOD,,Zion Temple MBC,GCFD-PM,INACTIVEFB,,,,41.7667119,
820,ENGLEWOOD,,Will Feed Community Org.,GCFD-PM,INACTIVEFB,,,,41.7776961,
821,WEST ENGLEWOOD,,Beautiful Zion,GCFD-PM,INACTIVEFB,,,,41.7779653,
822,WASHINGTON HEIGHTS,,Whole Food Ministries,GCFD-PM,INACTIVEFB,,,,41.70686920000001,
823,GRAND BOULEVARD,,Slater senior apts,GCFD-PM,INACTIVEFB,,,,41.81804879999999,
824,GREATER GRAND CROSSING,,St. Mark Manor senior,GCFD-PM,INACTIVEFB,,,,41.75698260000001,
825,GRAND BOULEVARD,,Slater Homes -Main,GCFD-PM,INACTIVEFB,,,,41.81741829999999,
826,WEST PULLMAN,,Stratford Memorial Church,GCFD-PM,INACTIVEFB,,,,41.67790170000001,
827,GREATER GRAND CROSSING,,New Covenant Jesus Helping Hnd,GCFD-PM,INACTIVEAG,,,,41.7551035,
828,CALUMET HEIGHTS,,Vernon Park Church-Wyatt Ctr.,GCFD-PM,INACTIVEFB,,,,41.731746,
829,MORGAN PARK,,Tabernacle Church,GCFD-PM,INACTIVEFB,,,,41.694695700000004,
830,ROSELAND,,34th Ward Min. Alliance,GCFD-PM,INACTIVEFB,,,,41.7034262,
831,GREATER GRAND CROSSING,,Shiloh SDA Dorcas Society,GCFD-PM,ACTIVE,,,,41.76720460000001,
832,AUBURN GRESHAM,,87th Street Church of Christ,GCFD-PM,INACTIVEFB,,,,41.7354555,
833,WEST PULLMAN,,34th Ward Ministers Alliance,GCFD-PM,ACTIVE,,,,41.6784123,
834,WEST ENGLEWOOD,,Beautiful Zion MBC,GCFD-PM,ACTIVE,,,,41.7779653,
835,WASHINGTON HEIGHTS,,Whole Fold Ministries,GCFD-PM,INACTIVEAG,,,,41.70686920000001,
836,ENGLEWOOD,,Antioch Haven Homes,GCFD-PM,INACTIVEFB,,,,41.7801414,
837,MORGAN PARK,,Tabernacle of God Church of Ch,GCFD-PM,INACTIVEFB,,,,41.694695700000004,
838,ASHBURN,,18th Ward - Alderman Murphy,GCFD-PM,INACTIVEFB,,,,41.7447492,
839,ASHBURN,,SAKAL,GCFD-PM,INACTIVEAG,,,,41.7531028,
840,GREATER GRAND CROSSING,,St. Columbanus,GCFD-PM,ACTIVE,,,,41.765227100000004,
841,BLUE ISLAND,,Blue Island Rec Center,GCFD-PM,INACTIVEFB,,,,41.6368237,
842,ASHBURN,,Liberty Temple,GCFD-PM,ACTIVE,,,,41.74950810000001,
843,ASHBURN,,Monument of Faith Church,GCFD-PM,ACTIVE,,,,41.7568622,
844,WOODLAWN,,St. Phillip Lutheran Food PY,GCFD-PM,INACTIVEFB,,,,41.7810625,
845,MARKHAM,,Grace M.B.C.,GCFD-PM,ACTIVE,,,,41.58689160000001,
846,CALUMET PARK,,CEDA - Calumet Park,GCFD-PM,INACTIVEAG,,,,41.6639555,
847,WASHINGTON PARK,,Metro Community Outreach,GCFD-PM,INACTIVEFB,,,,41.78780099999999,
848,GREATER GRAND CROSSING,,Mt. Hermon MBC,GCFD-PM,ACTIVE,,,,41.751150700000004,
849,ROBBINS,,Good Shepherd Lutheran Church,GCFD-PM,ACTIVE,,,,41.638926,
850,ASHBURN,,18th Ward Alderman,GCFD-PM,ACTIVE,,,,41.7447492,
851,GREATER GRAND CROSSING,,Parkway Garden Christian CH,PANTRY,ACTIVE,,,,41.7746713,
852,GREATER GRAND CROSSING,,Gerizim Love Food Ministry,PANTRY,INACTIVEFB,,,,41.75868699999999,
853,CALUMET HEIGHTS,,Vernon Park Church of God,PANTRY,INACTIVEAG,,,,41.73193870000001,
854,TINLEY PARK,,Together We Cope,PANTRY,ACTIVE,,,,41.5822286,
855,GRAND BOULEVARD,,Ebenezer MBC Food Pantry,PANTRY,ACTIVE,,,,41.812841,
856,MARKHAM,,Hope Community Services,PANTRY,INACTIVEAG,,,,41.60486960000001,
857,WOODLAWN,,Project Care,PANTRY,ACTIVE,,,,41.78239230000001,
858,CRESTWOOD,,Operation Blessing-South,PANTRY,INACTIVEAG,,,,41.640592299999994,
859,AUBURN GRESHAM,,St. Sabina Parish,PANTRY,ACTIVE,,,,41.7507333,
860,CHATHAM,,Commonwealth Community Church,PANTRY,INACTIVEFB,,,,41.747499,
861,CHATHAM,,New Bethlehem #4 MBC Pantry,PANTRY,ACTIVE,,,,41.73336079999999,
862,AUBURN GRESHAM,,St. Elizabeth Catholic Worker,PANTRY,INACTIVEAG,,,,41.947969,
863,ENGLEWOOD,,Will Feed Community Org. PY,PANTRY,INACTIVEFB,,,,41.7776961,
864,WOODLAWN,,First Presbyterian: Kimbark PY,PANTRY,ACTIVE,,,,41.7783854,
865,WASHINGTON HEIGHTS,,Whole Fold Ministries,PANTRY,ACTIVE,,,,41.7071309,
866,GREATER GRAND CROSSING,,New Covenant Jesus Help-N-Hand,PANTRY,INACTIVEAG,,,,41.7553196,
867,AUBURN GRESHAM,,First Church Of Love & Faith,PANTRY,INACTIVEFB,,,,41.749936100000006,
868,BLUE ISLAND,,Incarnation Parish Food Pantry,PANTRY,ACTIVE,,,,41.656943,
869,CALUMET PARK,,Community Covenant Church,PANTRY,ACTIVE,,,,41.666919,
870,WASHINGTON HEIGHTS,,Oakdale Covenant Church,PANTRY,INACTIVEFB,,,,41.722260600000006,
871,CALUMET PARK,,Chicago South Community Dev.,PANTRY,INACTIVEFB,,,,41.6691066,
872,WEST PULLMAN,,Zacchaeus House,PANTRY,INACTIVEAG,,,,41.67143,
873,AVALON PARK,,Haven of Rest MBC,PANTRY,ACTIVE,,,,41.750985899999996,
874,ORLAND PARK,,Orland Township,PANTRY,ACTIVE,,,,41.620828,
875,WEST ENGLEWOOD,,Beautiful Zion Baptist Church,PANTRY,ACTIVE,,,,41.7779653,
876,AUBURN GRESHAM,,TSA: Laflin Food Pantry,PANTRY,INACTIVEAG,,,,41.7355975,
877,TINLEY PARK,,Tinley Park Food Pantry,PANTRY,ACTIVE,,,,41.5758763,
878,CHICAGO LAWN,,Abundant Life Food Pantry,PANTRY,ACTIVE,,,,41.768546,
879,ENGLEWOOD,,Greater  Mount Vernon Pantry,PANTRY,INACTIVEFB,,,,41.7771158,
880,WASHINGTON HEIGHTS,,Hope Outreach Ministries,PANTRY,INACTIVEFB,,,,41.72881599999999,
881,AVALON PARK,,Faith Tabernacle Church,PANTRY,ACTIVE,,,,41.7456688,
882,WASHINGTON PARK,,T.W.O. Prarie Courts,PANTRY,INACTIVEFB,,,,41.78055,
883,GREATER GRAND CROSSING,,Israel Methodist Cmty Church,PANTRY,ACTIVE,,,,41.7564458,
884,BLUE ISLAND,,St. Donatus Food Pantry,PANTRY,INACTIVEFB,,,,41.6590016,
885,GREATER GRAND CROSSING,,Fire By Night IE Ministrees,PANTRY,INACTIVEFB,,,,41.7592563,
886,AUBURN GRESHAM,,Greater Mount Hebron MB Church,PANTRY,ACTIVE,,,,41.7480227,
887,WOODLAWN,,St. Gelasius Church,PANTRY,INACTIVEFB,,,,41.77818990000001,
888,WEST ENGLEWOOD,,Greater St. John AME Church,PANTRY,ACTIVE,,,,41.7813431,
889,CHATHAM,,Innercity Muslim Action Ntwk,PANTRY,INACTIVEFB,,,,41.7491263,
890,MORGAN PARK,,Mt. Calvary Family Needs,PANTRY,ACTIVE,,,,41.6919573,
891,AUBURN GRESHAM,,Victory Apostolic Faith Church,PANTRY,ACTIVE,,,,41.747124,
892,AUBURN GRESHAM,,Rock of Love MBC Food Pantry,PANTRY,INACTIVEFB,,,,41.7549346,
893,WOODLAWN,,"Way of Holiness Church, The",PANTRY,INACTIVEAG,,,,41.7837034,
894,SOUTH SHORE,,Temple of Brotherly Love,PANTRY,INACTIVEFB,,,,41.755042100000004,
895,BURNSIDE,,Near North Adult Center,PANTRY,INACTIVEFB,,,,41.7257709,
896,WOODLAWN,,LCFS Refugee Settlement,PANTRY,INACTIVEFB,,,,41.78329859999999,
897,MORGAN PARK,,Morgan Park SDA Comm. Srv.,PANTRY,INACTIVEAG,,,,41.6937375,
898,MIDLOTHIAN,,St. Stephen Lutheran Church,PANTRY,INACTIVEAG,,,,41.625034899999996,
899,EVERGREEN PARK,,Village Pantry Coalition,PANTRY,ACTIVE,,,,41.71475299999999,
900,ENGLEWOOD,,Holy Willing Workers of Christ,PANTRY,ACTIVE,,,,41.7690666,
901,ROSELAND,,St. James A.M.E. Food Pantry,PANTRY,ACTIVE,,,,41.725556299999994,
902,WASHINGTON HEIGHTS,,Beverly Hills SDA Church,PANTRY,ACTIVE,,,,41.72336809999999,
903,ROSELAND,,Sheldon Heights COC Pantry,PANTRY,ACTIVE,,,,41.68834409999999,
904,AVALON PARK,,St. Felicitas Church,PANTRY,ACTIVE,,,,41.7426319,
905,GREATER GRAND CROSSING,,Ingelside Whitfield Church,PANTRY,INACTIVEAG,,,,41.7567864,
906,WEST ENGLEWOOD,,Back To God Church,PANTRY,ACTIVE,,,,41.760624799999995,
907,ASHBURN,,Arab American Ed. Council,PANTRY,ACTIVE,,,,41.73980529999999,
908,MORGAN PARK,,Maple Morgan Park Food Pantry,PANTRY,ACTIVE,,,,41.69349829999999,
909,WEST PULLMAN,,Redeeming Grace Food Pantry,PANTRY,ACTIVE,,,,41.6794394,
910,WASHINGTON HEIGHTS,,Baptist Church Without Spot,PANTRY,ACTIVE,,,,41.7241059,
911,GREATER GRAND CROSSING,,Douglas-Tubman Child Dev.,PANTRY,INACTIVEFB,,,,41.76410739999999,
912,CHICAGO LAWN,,Sisters of St. Casimir Pantry,PANTRY,INACTIVEAG,,,,41.77110649999999,
913,AUBURN GRESHAM,,Church of Jesus Christ Intern.,PANTRY,INACTIVEFB,,,,41.746459,
914,GREATER GRAND CROSSING,,TSA: Park Manor Food Pantry,PANTRY,INACTIVEAG,,,,41.763896,
915,ENGLEWOOD,,Zion Temple MBC,PANTRY,INACTIVEAG,,,,41.7667119,
916,CHATHAM,,SOUTH CENTRAL COMMUNITY SVCS.,PANTRY,INACTIVEFB,,,,41.7437801,
917,ENGLEWOOD,,Carver MBC Food Pantry,PANTRY,INACTIVEFB,,,,41.76870539999999,
918,AUBURN GRESHAM,,Family Cares Mission Pantry,PANTRY,ACTIVE,,,,41.750747,
919,ALSIP,,Christ UM Church - Alsip,PANTRY,ACTIVE,,,,41.677189,
920,WASHINGTON HEIGHTS,,Greater Tab. MBC: Vincennes,PANTRY,ACTIVE,,,,41.7178225,
921,BEVERLY,,TRCDO Harvest for the World,PANTRY,ACTIVE,,,,41.7046372,
922,AVALON PARK,,Messiah St. Bartholomew Church,PANTRY,ACTIVE,,,,41.744310299999995,
923,WEST PULLMAN,,Glory to Glory Ministries,PANTRY,INACTIVEFB,,,,41.671664899999996,
924,AVALON PARK,,Calvary MBC,PANTRY,INACTIVEAG,,,,41.7472653,
925,ENGLEWOOD,,Canaan M.B.C. Food Ministry,PANTRY,ACTIVE,,,,41.7728885,
926,AUBURN GRESHAM,,New Joy Divine,PANTRY,ACTIVE,,,,41.755063,
927,AUBURN GRESHAM,,Faith  Pentecostal Holiness,PANTRY,INACTIVEAG,,,,41.747355600000006,
928,ENGLEWOOD,,FAITH TEMPLE COGIC,PANTRY,INACTIVEAG,,,,41.763529,
929,WEST PULLMAN,,Straford Memorial Church,PANTRY,ACTIVE,,,,41.6780982,
930,WASHINGTON HEIGHTS,,Tree of Life MBC Food Pantry,PANTRY,INACTIVEAG,,,,41.7259829,
931,GREATER GRAND CROSSING,,Shiloh SDA Dorcas Society,PANTRY,ACTIVE,,,,41.76720460000001,
932,GREATER GRAND CROSSING,,Salem House Food Pantry,PANTRY,INACTIVEFB,,,,41.7603997,
933,CHATHAM,,St. Stephens Lutheran Church,PANTRY,INACTIVEFB,,,,41.7401622,
934,AUBURN GRESHAM,,Masonic Food Cellar,PANTRY,INACTIVEAG,,,,41.750383299999996,
935,MIDLOTHIAN,,Society of St Vincent de Paul,PANTRY,ACTIVE,,,,41.626386600000004,
936,BURNSIDE,,Grant A Wish Inc.,PANTRY,ACTIVE,,,,41.72598250000001,
937,ENGLEWOOD,,Englewood UMC Food Pantry,PANTRY,ACTIVE,,,,41.777880200000006,
938,GREATER GRAND CROSSING,,Carey Temple AME Food Pantry,PANTRY,ACTIVE,,,,41.764384,
939,WEST PULLMAN,,New Freedom Christian Center,PANTRY,INACTIVEFB,,,,41.6820451,
940,SOUTH SHORE,,Frederick Douglas Crusaders,PANTRY,INACTIVEFB,,,,41.767238,
941,CHATHAM,,Chatham-Avalon Ministries,PANTRY,ACTIVE,,,,41.73772109999999,
942,MIDLOTHIAN,,New Mercies Community Services,PANTRY,INACTIVEAG,,,,41.625884000000006,
943,WOODLAWN,,St Phillip Lutheran Church,PANTRY,INACTIVEAG,,,,41.7810625,
944,MARKHAM,,Anointed Word Internat'l Min.,PANTRY,INACTIVEFB,,,,41.6014679,
945,MARKHAM,,Grace M.B.C. Pantry,PANTRY,ACTIVE,,,,41.58689160000001,
946,GREATER GRAND CROSSING,,St. Columbanus,PANTRY,ACTIVE,,,,41.765227100000004,
947,AUBURN GRESHAM,,God's Place Christian Center,PANTRY,INACTIVEAG,,,,41.73600089999999,
948,OAKLAND,,West Point Baptist Church,PANTRY,ACTIVE,,,,41.829410100000004,
949,ROBBINS,,Seed of Faith Ministries,PANTRY,INACTIVEFB,,,,41.6440343,
950,AUBURN GRESHAM,,Room at the Cross Ministries,PANTRY,INACTIVEFB,,,,41.736062700000005,
951,WASHINGTON PARK,,Greater Metropolitan MB Church,PANTRY,ACTIVE,,,,41.78780099999999,
952,GREATER GRAND CROSSING,,Greater Acquaintance Religious,PANTRY,ACTIVE,,,,41.771159499999996,
953,WEST PULLMAN,,Lights of Zion Church,PANTRY,ACTIVE,,,,41.6821789,
954,CHICAGO LAWN,,Men & Women of God Who Are We,PANTRY,INACTIVEFB,,,,41.7723412,
955,ROSELAND,,Covenant Faith Church of God,PANTRY,ACTIVE,,,,41.70312020000001,
956,ROBBINS,,Right Start Outreach Center,PANTRY,INACTIVEFB,,,,41.6409119,
957,WASHINGTON PARK,,God's House of Hope,GCFD-MP,INACTIVEFB,,,,41.78913970000001,
958,ENGLEWOOD,,Carver MBC,GCFD-MP,INACTIVEAG,,,,41.76870539999999,
959,WEST PULLMAN,,Christ Church of Chicago,PANTRY,INACTIVEFB,,,,41.659438,
960,AUBURN GRESHAM,,New Gresham UMC,PANTRY,ACTIVE,,,,41.7356631,
961,AUBURN GRESHAM,,Greater Mt. Vernon Baptist Ch.,PANTRY,INACTIVEFB,,,,41.7355975,
962,WASHINGTON PARK,,Christ Unity - Good Life,PANTRY,ACTIVE,,,,41.7841214,
963,WOODLAWN,,Ministry of the Faithful toGod,PANTRY,ACTIVE,,,,41.784073299999996,
964,CALUMET PARK,,CEDA - Calumet Park,PANTRY,INACTIVEFB,,,,41.6639625,
965,ENGLEWOOD,,Word of God Life Changing Min.,PANTRY,INACTIVEAG,,,,41.765467,
966,WEST PULLMAN,,Noble Evangelistic Ministries,PANTRY,INACTIVEFB,,,,41.675863,
967,WASHINGTON HEIGHTS,,Gil Gal Ministries NFP,PANTRY,INACTIVEAG,,,,41.72881599999999,
968,GRAND BOULEVARD,,Harris Temple A.O.H. Church,PANTRY,INACTIVEFB,,,,41.819236700000005,
969,CALUMET HEIGHTS,,St. Ailbe Men's Ministry,PANTRY,ACTIVE,,,,41.729949,
970,CHICAGO LAWN,,Calvary Hill Baptist Church,PANTRY,INACTIVEFB,,,,41.7644396,
971,WEST ENGLEWOOD,,Uncle Shack Food Blessing,PANTRY,ACTIVE,,,,41.7595247,
972,GREATER GRAND CROSSING,,Inner-City Missions Network,PANTRY,ACTIVE,,,,41.759737799999996,
973,CHICAGO LAWN,,Agape Apostolic Assembly,PANTRY,INACTIVEAG,,,,41.768583,
974,ENGLEWOOD,,TSA: Englewood,SEASONAL,INACTIVEFB,,,,41.7685941,
975,WOODLAWN,,The Living Room Cafe,PANTRY,INACTIVEAG,,,,41.7787348,
976,WASHINGTON HEIGHTS,,Third Baptist Church ofChicago,PANTRY,ACTIVE,,,,41.721298299999994,
977,MORGAN PARK,,Apostolic Pentecostal Church,PANTRY,ACTIVE,,,,41.6861939,
978,BLUE ISLAND,,TSA: Blue Island,PANTRY,ACTIVE,,,,41.663007799999995,
979,WEST PULLMAN,,Temple of Praise Binding,PANTRY,INACTIVEFB,,,,41.659438,
980,POSEN,,Abounding Life Church of God,PANTRY,ACTIVE,,,,41.627175,
981,AVALON PARK,,Carver MBC Food Pantry,PANTRY,INACTIVEFB,,,,41.745623200000004,
982,BEVERLY,,Unique Value Community Center,PANTRY,INACTIVEAG,,,,41.7137349,
983,WASHINGTON HEIGHTS,,Zion Lutheran Church,PANTRY,ACTIVE,,,,41.713566,
984,GRAND BOULEVARD,,Kenwood Oakland Community Org,PANTRY,ACTIVE,,,,41.817342700000005,
985,WASHINGTON HEIGHTS,,Shiloah Baptist Church,PANTRY,ACTIVE,,,,41.726582,
986,ALSIP,,Lighthouse Chur of All Nations,PANTRY,ACTIVE,,,,41.6602442,
987,ASHBURN,,Daughters of Destiny Min.,PANTRY,ACTIVE,,,,41.74989420000001,
988,ENGLEWOOD,,TSA: Englewood Red Shield Cent,PANTRY,ACTIVE,,,,41.7685216,
989,WEST PULLMAN,,New Christian Joy Full Gospel,PANTRY,ACTIVE,,,,41.6824171,
990,GREATER GRAND CROSSING,,Masjid Al-Hafeez,PANTRY,INACTIVEFB,,,,41.75825220000001,
991,ROSELAND,,New Progressive Missionary,PANTRY,ACTIVE,,,,41.7232227,
992,WEST PULLMAN,,Joyful Harvest Christian Min.,PANTRY,ACTIVE,,,,41.660743,
993,ASHBURN,,Word of God Life Changing Min.,PANTRY,INACTIVEFB,,,,41.74687309999999,
994,BLUE ISLAND,,Englewood Cares Outreach PY,PANTRY,ACTIVE,,,,41.6415599,
995,AUBURN GRESHAM,,God's House of Divine,PANTRY,ACTIVE,,,,41.743021,
996,GREATER GRAND CROSSING,,New Covenant MB Church,PANTRY,ACTIVE,,,,41.7551035,
997,WEST PULLMAN,,TSA: The Salvation Army Ray &,PANTRY,INACTIVEFB,,,,41.6784123,
998,ORLAND PARK,,Anointed Word Internat'l Min.,PANTRY,INACTIVEAG,,,,41.6073597,
999,MORGAN PARK,,"Rho Gamma Gamma, Inc.",PANTRY,ACTIVE,,,,41.685114,
1000,GREATER GRAND CROSSING,,New Life Covenant Church,PANTRY,ACTIVE,,,,41.753369299999996,
1001,WASHINGTON HEIGHTS,,St. Margaret of Scotland,PANTRY,ACTIVE,,,,41.714796500000006,
1002,KENWOOD,,Church of St. Paul and,PANTRY,ACTIVE,,,,41.8045499,
1003,ASHBURN,,New Foundation of Hope,PANTRY,INACTIVEFB,,,,41.7447492,
1004,AUBURN GRESHAM,,Blessed Assurance Faith,PANTRY,ACTIVE,,,,41.750703,
1005,TINLEY PARK,,Anointed Word Internat'l Min.,PANTRY,ACTIVE,,,,41.59453999999999,
1006,CHICAGO LAWN,,Christ Evangelical Ministries,PANTRY,ACTIVE,,,,41.765058200000006,
1007,BLUE ISLAND,,Blue Cap-Rosie's Corporation,GROUP HOME,INACTIVEFB,,,,41.650356200000004,
1008,AUBURN GRESHAM,,St. Elizabeth Catholic Wkr.Sh,SHELTER,INACTIVEAG,,,,41.747654,
1009,AUBURN GRESHAM,,Southwest Women-Amani House,SHELTER,INACTIVEAG,,,,41.747654,
1010,TINLEY PARK,,Crisis Center for So. Suburbia,GROUP HOME,INACTIVEFB,,,,41.563659,
1011,GREATER GRAND CROSSING,,St. Frances De Paula Shelter,SHELTER,INACTIVEAG,,,,41.7527693,
1012,ENGLEWOOD,,Determined Mind To Change,SHELTER,INACTIVEAG,,,,41.76953029999999,
1013,ENGLEWOOD,,Sousa Transitional Shelter,SHELTER,INACTIVEFB,,,,41.7668864,
1014,GREATER GRAND CROSSING,,Institute of Women Today,SHELTER,ACTIVE,,,,41.7609299,
1015,WEST PULLMAN,,ASSUMPTION BVM SHELTER,SHELTER,INACTIVEFB,,,,41.67143,
1016,WASHINGTON PARK,,"Renewed, Inc.",GROUP HOME,INACTIVEAG,,,,41.78465509999999,
1017,ASHBURN,,Greer Christian Community Ctr.,SHELTER,INACTIVEFB,,,,41.7470366,
1018,ENGLEWOOD,,Thresholds Rowan Trees,SHELTER,INACTIVEFB,,,,41.7810693,
1019,EVERGREEN PARK,,Interdependent Living Solution,SHELTER,INACTIVEFB,,,,41.7205877,
1020,MIDLOTHIAN,,YMCA-Independence Place,SHELTER,INACTIVEFB,,,,41.630885,
1021,AUBURN GRESHAM,,CCHC Amani House,SHELTER,ACTIVE,,,,41.747654,
1022,GREATER GRAND CROSSING,,CMHC- 74th St,GROUP HOME,INACTIVEFB,,,,41.7606012,
1023,WEST ENGLEWOOD,,Elite House of Sober Living,SHELTER,INACTIVEFB,,,,41.762313299999995,
1024,WOODLAWN,,First Presbyterian: Kimbark SK,SOUP KITCH,INACTIVEFB,,,,41.7783854,
1025,ENGLEWOOD,,Will Feed Community Org. SK,SOUP KITCH,INACTIVEAG,,,,41.7776961,
1026,KENWOOD,,Hyde Park SDA Soup Kitchen,SOUP KITCH,ACTIVE,,,,41.81115629999999,
1027,ENGLEWOOD,,Englewood UMC SK (Inactive),SOUP KITCH,INACTIVEAG,,,,41.777880200000006,
1028,GREATER GRAND CROSSING,,CMHC- 74th St,GROUP HOME,INACTIVEFB,,,,41.7606012,
1029,MORGAN PARK,,Morgan Park Pentecostal Church,SOUP KITCH,INACTIVEFB,,,,41.689733000000004,
1030,ENGLEWOOD,,Canaan M.B.C. Food Ministry,SOUP KITCH,INACTIVEAG,,,,41.7728885,
1031,WOODLAWN,,Martin Temple Community Ftn,SOUP KITCH,ACTIVE,,,,41.76888659999999,
1032,AUBURN GRESHAM,,Progressive Beulah Pentecostal,SOUP KITCH,INACTIVEFB,,,,41.73572120000001,
1033,MORGAN PARK,,Holy Name of Mary,SOUP KITCH,ACTIVE,,,,41.6903937,
1034,WASHINGTON PARK,,Greater Full Gospel Pente. CH,SOUP KITCH,INACTIVEAG,,,,41.7830266,
1035,WEST PULLMAN,,The Seeds Center of Maple Park,SOUP KITCH,ACTIVE,,,,41.6810324,
1036,ENGLEWOOD,,Shepherd's Hope -,SOUP KITCH,ACTIVE,,,,41.7763169,
1037,MORGAN PARK,,Apostolic Pentecostal Church,SOUP KITCH,ACTIVE,,,,41.6861939,
1038,WOODLAWN,,Charisma,SPECIAL,INACTIVEFB,,,,41.776919299999996,
1039,WOODLAWN,,Charisma,SEASONAL,INACTIVEFB,,,,41.776919299999996,
1040,KENWOOD,,Thresholds Kiley House,PANTRY,INACTIVEFB,,,,41.80845789999999,
1041,KENWOOD,,God Squad Inc.,SCHOOL,INACTIVEFB,,,,41.8018808,
1042,BLUE ISLAND,,Thresholds South Suburbs,SOUP KITCH,INACTIVEFB,,,,41.672223200000005,
1043,WASHINGTON PARK,,NCVI,SCHOOL,INACTIVEFB,,,,41.7992022,
1044,AUBURN GRESHAM,,Sixth District Steering Cmte,SEASONAL,INACTIVEFB,,,,41.750741,
1045,WOODLAWN,,The Living Room Cafe,SOUP KITCH,INACTIVEAG,,,,41.7787348,
1046,CALUMET HEIGHTS,,Comm. Mental Health Council,SOUP KITCH,INACTIVEFB,,,,41.736725,
1047,CALUMET HEIGHTS,,CMHC - Constance,SOUP KITCH,INACTIVEFB,,,,41.736725,
1048,CHICAGO LAWN,,CMHC- Western Ave.,GROUP HOME,INACTIVEFB,,,,41.76375529999999,
1049,HYDE PARK,,METROSquash,SCHOOL,INACTIVEAG,,,,41.7917026,
1050,CHICAGO LAWN,,Men & Women of God Who Are We,SPECIAL,INACTIVEFB,,,,41.7723412,
1051,WEST PULLMAN,,Salem Baptist 6/29/08,SEASONAL,INACTIVEAG,,,,41.677849200000004,
1052,GREATER GRAND CROSSING,,Global Girls Inc.,SPECIAL,INACTIVEAG,,,,41.7556929,
1053,HYDE PARK,,Blue Gargoyle Community Ser.,SPECIAL,INACTIVEAG,,,,41.7919281,
1054,OAK FOREST,,Together We Cope (Oak Forest),PANTRY,INACTIVEAG,,,,41.60309229999999,
1055,ENGLEWOOD,,Congressman Rush,SEASONAL,INACTIVEFB,,,,41.7771158,
1056,HYDE PARK,,Companions Journeying Together,PANTRY,ACTIVE,,,,41.790184100000005,
1057,ORLAND PARK,,Together We Cope (Orland Park),PANTRY,ACTIVE,,,,41.616260499999996,
1058,GREATER GRAND CROSSING,,New Beginnings Church,GCFD-PM,INACTIVEFB,,,,41.7740037,
1059,MORGAN PARK,,Mercy Home for Boys and Girls,GROUP HOME,ACTIVE,,,,41.682456099999996,
1060,AUBURN GRESHAM,,Family Cares Helping Hand,PANTRY,ACTIVE,,,,41.750747,
1061,AUBURN GRESHAM,,Foster Park,SPECIAL,INACTIVEFB,,,,41.741704399999996,
1062,WEST PULLMAN,,Promise Center,SPECIAL,INACTIVEFB,,,,41.6807813,
1063,WOODLAWN,,Christ Way,SPECIAL,INACTIVEFB,,,,41.7825704,
1064,BEVERLY,,Universal Family Connection,SPECIAL,INACTIVEFB,,,,41.707037,
1065,SOUTH CHICAGO,,Global Girls Inc.,SPECIAL,INACTIVEFB,,,,41.746709700000004,
1066,WASHINGTON PARK,,General Jones Armory,SEASONAL,ACTIVE,,,,41.7992022,
1067,AUBURN GRESHAM,,Auburn Commons,SPECIAL,INACTIVEAG,,,,41.7361297,
1068,ENGLEWOOD,,Chgo Dept on Aging - Englewood,SENIOR,INACTIVEFB,,,,41.7795394,
1069,KENWOOD,,Drexel Square,SENIORBOX,ACTIVE,,,,41.8026246,
1070,GRAND BOULEVARD,,Judge Slater Apts,SENIORPRO,ACTIVE,,,,41.81741829999999,
1071,WOODLAWN,,Kenneth Campbell Senior Bldg,SENIOR,INACTIVEFB,,,,41.7790042,
1072,DOUGLAS,,Lincoln Perry Annex,SENIOR,INACTIVEFB,,,,41.83647620000001,
1073,GREATER GRAND CROSSING,,St. Mark Manor,SENIORBOX,ACTIVE,,,,41.75698260000001,
1074,GRAND BOULEVARD,,T.W.O. Prarie Courts,SPECIAL,INACTIVEFB,,,,41.8146429,
1075,KENWOOD,,Washington Park Apartments,SENIOR,INACTIVEFB,,,,41.804616100000004,
1076,CHATHAM,,Chatham Park South,SENIORBOX,ACTIVE,,,,41.74033970000001,
1077,GREATER GRAND CROSSING,,Lafayette Terrace,SENIORBOX,ACTIVE,,,,41.7679,
1078,WASHINGTON PARK,,St. Edmund's Senior Apartments,SENIOR,INACTIVEFB,,,,41.782463,
1079,ENGLEWOOD,,Tolton Manor,SENIOR,INACTIVEFB,,,,41.778245,
1080,ENGLEWOOD,,Greencastle of Englewood,SENIORBOX,ACTIVE,,,,41.778498600000006,
1081,DOUGLAS,,Lincoln Perry Main Building,SENIOR,INACTIVEAG,,,,41.835201500000004,
1082,ENGLEWOOD,,Orchard Place of Englewood,SENIORBOX,ACTIVE,,,,41.778459000000005,
1083,WOODLAWN,,Edwin C. Berry Manor,SENIORBOX,ACTIVE,,,,41.769208,
1084,WOODLAWN,,Midway Plaisance,SENIORPRO,ACTIVE,,,,41.785590500000005,
1085,WOODLAWN,,Greencastle of Woodlawn I,SENIORBOX,ACTIVE,,,,41.784609,
1086,WOODLAWN,,Greencastle of Woodlawn II,SENIORBOX,ACTIVE,,,,41.7849776,
1087,ENGLEWOOD,,Vivian Carter Apartments,SENIOR,INACTIVEFB,,,,41.7777241,
1088,GRAND BOULEVARD,,North Washington Park Manor,SENIORBOX,ACTIVE,,,,41.8033492,
1089,KENWOOD,,Greencastle of Kenwood,SENIOR,INACTIVEAG,,,,41.80562889999999,
1090,DOUGLAS,,Pioneer Village,SENIORPRO,ACTIVE,,,,41.825842,
1091,GREATER GRAND CROSSING,,Wentworth Haven Homes,SENIORBOX,ACTIVE,,,,41.7640136,
1092,DOUGLAS,,Lincoln Perry Apartments,SENIOR,INACTIVEFB,,,,41.835201500000004,
1093,AUBURN GRESHAM,,New Pisgah Haven Homes,SENIOR,INACTIVEFB,,,,41.7482518,
1094,WOODLAWN,,Park Shore East Elderly,SENIOR,INACTIVEFB,,,,41.7815574,
1095,SOUTH CHICAGO,,Atlas Senior Center,SENIOR,ACTIVE,,,,41.751292799999995,
1096,CALUMET PARK,,Calumet Township,SENIOR,ACTIVE,,,,41.6639555,
1097,WASHINGTON PARK,,St. Edmund's Tower,SENIORBOX,ACTIVE,,,,41.782463,
1098,DOUGLAS,,Lincoln Perry Annex,SENIORPRO,ACTIVE,,,,41.83647620000001,
1099,KENWOOD,,Washington Park Apts,SENIORPRO,ACTIVE,,,,41.804616100000004,
1100,ENGLEWOOD,,Tolton Manor,SENIORPRO,ACTIVE,,,,41.778245,
1101,ENGLEWOOD,,Chgo Dept on Aging - Englewood,SENIORPRO,ACTIVE,,,,41.7795394,
1102,WOODLAWN,,Park Shore East Elderly,SENIORPRO,ACTIVE,,,,41.7816604,
1103,WOODLAWN,,Kenneth Campbell Apts,SENIORPRO,ACTIVE,,,,41.7790042,
1104,WOODLAWN,,Burnham Apartments,SENIORBOX,ACTIVE,,,,41.7829875,
1105,ROBBINS,,Edward Brown Apartments,SENIORBOX,ACTIVE,,,,41.6408372,
1106,HEGEWISCH,,Food Box-Hegewisch Comm SvcCtr,FOODBOX,INACTIVEFB,,,,41.653442,
1107,SOUTH CHICAGO,,Food Box-So. Chcgo Commty Svc,FOODBOX,INACTIVEFB,,,,41.7359874,
1108,SOUTH SHORE,,Food Box -New Beginning Transt,FOODBOX,INACTIVEFB,,,,41.762366,
1109,SOUTH SHORE,,Food Box-New Beginnings Center,FOODBOX,INACTIVEFB,,,,41.762366,
1110,SOUTH CHICAGO,,Food Box-Cornerstone Church,FOODBOX,INACTIVEFB,,,,41.74032929999999,
1111,SOUTH SHORE,,Hope Village,CDHS-PRO,ACTIVE,,,,41.75203870000001,
1112,SOUTH SHORE,,Excellent Way,CDHS-PRO,INACTIVEFB,,,,41.7520206,
1113,SOUTH DEERING,,Family Restoration,CDHS-PRO,ACTIVE,,,,41.72208699999999,
1114,SOUTH CHICAGO,,Family Rescue/Rosethal Family,CDHS-PRO,ACTIVE,,,,41.730326399999996,
1115,RIVERDALE - CHICAGO,,Tab House II,CDHS-PRO,ACTIVE,,,,41.6456145,
1116,MARKHAM,,K.C. CONLON CHILDREN'S ROOM,DAY CARE,INACTIVEFB,,,,41.59024229999999,
1117,SOUTH SHORE,,St. Margaret Respite DC,DAY CARE,INACTIVEAG,,,,41.7632329,
1118,SOUTH SHORE,,Kenyatta's Day Care,DAY CARE,ACTIVE,,,,41.75912329999999,
1119,ROSELAND,,Primary Day Care Center,DAY CARE,INACTIVEAG,,,,41.6859238,
1120,RIVERDALE - CHICAGO,,Golden Gate Day Care Center,DAY CARE,ACTIVE,,,,41.651084000000004,
1121,SOUTH DEERING,,MARY'S LITTLE LAMBS DAY CARE,DAY CARE,INACTIVEFB,,,,41.7132312,
1122,BURNHAM,,Child Life Day Care,DAY CARE,INACTIVEFB,,,,41.631985799999995,
1123,ROSELAND,,Community Learning Center Inc.,DAY CARE,INACTIVEFB,,,,41.7011493,
1124,ROSELAND,,Academy of Early Education,SCHOOL,INACTIVEFB,,,,41.6889941,
1125,SOUTH HOLLAND,,Nurturing Dev't and Learng Ctr,DAY CARE,INACTIVEFB,,,,41.622207700000004,
1126,LANSING,,Baby Academy,DAY CARE,INACTIVEFB,,,,41.5792385,
1127,SAUK VILLAGE,,Learn As You Grow Preschool I,DAY CARE,ACTIVE,,,,41.484997,
1128,EAST HAZEL CREST,,Learn As You Grow Preschool II,DAY CARE,INACTIVEFB,,,,41.574095,
1129,SOUTH DEERING,,Illinois Institute for Childre,DAY CARE,INACTIVEFB,,,,41.713230100000004,
1130,SOUTH CHICAGO,,Corner Stone Church of Chicago,FOODBOX,INACTIVEFB,,,,41.74032929999999,
1131,HARVEY,,South Suburban YMCA Senior Ctr,SPECIAL,INACTIVEFB,,,,41.6081284,
1132,SOUTH CHICAGO,,Christ Apostolic Church of IL,PANTRY,INACTIVEFB,,,,41.74666999999999,
1133,HARVEY,,Vital Bridges-Harvey,PANTRY,INACTIVEAG,,,,41.6099581,
1134,SOUTH CHICAGO,,Centro Comunitario Juan D  KC,SCHOOL,INACTIVEAG,,,,41.735039,
1135,HARVEY,,Restoration Ministries,CACFP,INACTIVEAG,,,,41.6008779,
1136,CHICAGO HEIGHTS,,Christ Ecumenical Center KC,KIDS CAFE,INACTIVEFB,,,,41.501857,
1137,WEST PULLMAN,,ABJ KC,KIDS CAFE,INACTIVEAG,,,,41.670487200000004,
1138,CHICAGO HEIGHTS,,Christ Ecumenical Ctr KC,KIDS CAFE,INACTIVEAG,,,,41.517575,
1139,SOUTH SHORE,,ABJ Mending Young Minds,KIDS CAFE,INACTIVEFB,,,,41.766563700000006,
1140,HARVEY,,"WRAP, Inc.  Kids Cafe",KIDS CAFE,INACTIVEFB,,,,41.6081284,
1141,FORD HEIGHTS,,F.U.T.U.R.E. Foundation,KIDS CAFE,INACTIVEAG,,,,41.502967,
1142,SOUTH SHORE,,CYC Rebecca Crown,CACFP,ACTIVE,,,,41.7569299,
1143,HARVEY,,Ultimate Blessings,KIDS CAFE,INACTIVEFB,,,,41.608368,
1144,FORD HEIGHTS,,Ford Heights Comm Youth Cmte.,KIDS CAFE,INACTIVEFB,,,,41.5076706,
1145,FORD HEIGHTS,,Ford Heights Youth Committee,KIDS CAFE,INACTIVEFB,,,,41.503571799999996,
1146,CHICAGO HEIGHTS,,Union Evangelistic Baptist,KIDS CAFE,INACTIVEFB,,,,41.501414700000005,
1147,LYNWOOD,,Living Grace Church (CM),KIDS CAFE,INACTIVEFB,,,,41.530492200000005,
1148,CHICAGO HEIGHTS,,abundant life,KIDS CAFE,INACTIVEFB,,,,41.862398999999996,
1149,HARVEY,,Gloria Taylor Park,KIDS CAFE,INACTIVEFB,,,,41.614287100000006,
1150,HARVEY,,Holmes Park,SFSP,ACTIVE,,,,41.6524261,
1151,RICHTON PARK,,Glaeser Park (CM),KIDS CAFE,INACTIVEFB,,,,41.487657299999995,
1152,LYNWOOD,,Sandridge Shool District (CM),KIDS CAFE,INACTIVEFB,,,,41.5188071,
1153,HARVEY,,Bethel Gospel Tabernacle (CM),KIDS CAFE,INACTIVEFB,,,,41.614725299999996,
1154,HAZEL CREST,,Full Gospel Christian Assembly,KIDS CAFE,INACTIVEFB,,,,41.5716472,
1155,PARK FOREST,,American Association of,KIDS CAFE,INACTIVEFB,,,,41.479414,
1156,FORD HEIGHTS,,Cottage Grove School,SFSP,ACTIVE,,,,41.5055883,
1157,FORD HEIGHTS,,Medgar Evers School (CM),KIDS CAFE,INACTIVEFB,,,,41.5135211,
1158,CHICAGO HEIGHTS,,Chicago Heights Park District,SFSP,INACTIVEFB,,,,41.5056737,
1159,CHICAGO HEIGHTS,,Commissioners Park,SFSP,ACTIVE,,,,41.666173799999996,
1160,ROSELAND,,Christ Cathedral Baptist Ch.,KIDS CAFE,INACTIVEAG,,,,41.6922157,
1161,RIVERDALE - SUBURB,,Ivan Hoe Park District,KIDS CAFE,INACTIVEFB,,,,41.646482299999995,
1162,RIVERDALE - SUBURB,,Ivanhoe Park District,KIDS CAFE,INACTIVEFB,,,,41.633072,
1163,SOUTH CHICAGO,,Rey Gonzalez-El Valor,KIDS CAFE,INACTIVEFB,,,,41.7285349,
1164,RICHTON PARK,,Richton Park Community Center,KIDS CAFE,INACTIVEFB,,,,41.48368370000001,
1165,SOUTH CHICAGO,,South Chicago YMCA,CACFP,ACTIVE,,,,41.7297841,
1166,COUNTRY CLUB HILLS,,TruVision Productions,KIDS CAFE,INACTIVEFB,,,,41.55073,
1167,CHICAGO HEIGHTS,,Hodges Park,KIDS CAFE,INACTIVEFB,,,,41.50256299999999,
1168,CHICAGO HEIGHTS,,Greater Faith Baptist Church,KIDS CAFE,INACTIVEFB,,,,41.4976174,
1169,CHICAGO HEIGHTS,,Euclid Park (CHPD),KIDS CAFE,INACTIVEFB,,,,41.4953563,
1170,CHICAGO HEIGHTS,,Windows of Heaven Community,KIDS CAFE,INACTIVEFB,,,,41.512105,
1171,CHICAGO HEIGHTS,,Sesto Park,KIDS CAFE,INACTIVEFB,,,,41.4972299,
1172,CHICAGO HEIGHTS,,Jirtle Park,KIDS CAFE,INACTIVEFB,,,,41.4925112,
1173,MATTESON,,New Faith Baptist Church -,KIDS CAFE,INACTIVEFB,,,,41.5260356,
1174,SOUTH CHICAGO HEIGHTS,,Cornerstone Christian School,KIDS CAFE,INACTIVEAG,,,,41.48536989999999,
1175,HARVEY,,Unity Fellowship,KIDS CAFE,INACTIVEFB,,,,41.88564969999999,
1176,WEST PULLMAN,,Jesse Owens Elementary,KIDS CAFE,INACTIVEAG,,,,41.6677891,
1177,RICHTON PARK,,Village of Richton Park,CACFP,ACTIVE,,,,41.47454329999999,
1178,ROSELAND,,New Foundation B. Church,KIDS CAFE,INACTIVEFB,,,,41.7008932,
1179,MATTESON,,South Suburban Special (SSSRA),KIDS CAFE,INACTIVEFB,,,,41.50201,
1180,FORD HEIGHTS,,Medgar Evers - District #169,SFSP,ACTIVE,,,,41.514585700000005,
1181,RIVERDALE - SUBURB,,Riverdale Park District,SFSP,ACTIVE,,,,41.633072,
1182,CHICAGO HEIGHTS,,Wacker Park (CHPD),KIDS CAFE,INACTIVEAG,,,,41.690580499999996,
1183,HARVEY,,Kizer Memorial Summer Camp,KIDS CAFE,INACTIVEFB,,,,41.6252124,
1184,SOUTH DEERING,,CHA Trumbull Oglesby,SFSP,ACTIVE,,,,41.7024343,
1185,SOUTH SHORE,,Holman Leadership Academy,KIDS CAFE,INACTIVEFB,,,,41.7659977,
1186,ROSELAND,,St. John Pentecostal Church,KIDS CAFE,INACTIVEFB,,,,41.6995984,
1187,CALUMET CITY,,State Representative Thaddeus,KIDS CAFE,INACTIVEFB,,,,41.6227951,
1188,SOUTH CHICAGO,,La Causa Community Committee,KIDS CAFE,INACTIVEFB,,,,41.734937,
1189,SOUTH CHICAGO,,Gospel Way Covenant Church,KIDS CAFE,INACTIVEFB,,,,41.7466363,
1190,HARVEY,,United Fellowship Church,KIDS CAFE,INACTIVEFB,,,,41.6217523,
1191,SOUTH SHORE,,Maranatha Comm Youth Center,SFSP,ACTIVE,,,,41.765774799999996,
1192,RIVERDALE - CHICAGO,,CHA- Altgeld 656,SFSP,ACTIVE,,,,41.65370739999999,
1193,HARVEY,,Standberry Christian Academy,KIDS CAFE,INACTIVEFB,,,,41.622667299999996,
1194,SOUTH CHICAGO,,Inner City Youth Service,KIDS CAFE,INACTIVEFB,,,,41.727885799999996,
1195,PULLMAN,,CHA - Olive Harvey College,SFSP,ACTIVE,,,,41.710536499999996,
1196,SOUTH DEERING,,CHA- Trumbull,SFSP,ACTIVE,,,,41.702104600000006,
1197,RIVERDALE - CHICAGO,,CHA- Altgeld Langley,SFSP,ACTIVE,,,,41.656003399999996,
1198,RIVERDALE - CHICAGO,,CHA- Altgeld Evans,SFSP,ACTIVE,,,,41.658097999999995,
1199,RIVERDALE - CHICAGO,,CHA- Altgeld 742,SFSP,ACTIVE,,,,41.6532429,
1200,RIVERDALE - CHICAGO,,CHA- Altgeld Greenwood,SFSP,ACTIVE,,,,41.657771200000006,
1201,SOUTH SHORE,,CYC: Edu Supp Init Program,KIDS CAFE,INACTIVEFB,,,,41.7569299,
1202,ROSELAND,,Success to Significance,KIDS CAFE,INACTIVEFB,,,,41.691479,
1203,ROSELAND,,Roseland Christian Ministries,SFSP,ACTIVE,,,,41.6964833,
1204,ROSELAND,,Metropolitan Family Services,SFSP,ACTIVE,,,,41.7069944,
1205,RIVERDALE - CHICAGO,,Metropolitan Family Services,SFSP,ACTIVE,,,,41.6548234,
1206,HARVEY,,Harvey Park District,SFSP,INACTIVEFB,,,,41.5987848,
1207,RIVERDALE - CHICAGO,,Golden Gate Day Care Center,KIDS CAFE,INACTIVEFB,,,,41.651084000000004,
1208,MATTESON,,South Suburban Special Rec Ass,KIDS CAFE,INACTIVEFB,,,,41.514464000000004,
1209,SOUTH DEERING,,Little Angels Academy,KIDS CAFE,INACTIVEFB,,,,41.7045568,
1210,HARVEY,,Martin Luther King Jr. Park,KIDS CAFE,INACTIVEAG,,,,41.61685230000001,
1211,HAZEL CREST,,Hazel Crest Community Ch UMC,KIDS CAFE,INACTIVEFB,,,,41.580379,
1212,COUNTRY CLUB HILLS,,Achieve Chicago Southland,KIDS CAFE,INACTIVEFB,,,,41.5731375,
1213,HARVEY,,Riley School,KIDS CAFE,INACTIVEFB,,,,41.598631,
1214,HARVEY,,Whittier Elementary School,KIDS CAFE,INACTIVEFB,,,,41.613559,
1215,HARVEY,,Bryant Elementary School,KIDS CAFE,INACTIVEFB,,,,41.6220609,
1216,HARVEY,,Holmes Elementary School,KIDS CAFE,INACTIVEFB,,,,41.598496000000004,
1217,WASHINGTON HEIGHTS,,Third Baptist Church ofChicago,SFSP,ACTIVE,,,,41.7208945,
1218,AUSTIN,,Rising Stars Youth Club,SFSP,ACTIVE,,,,41.945653899999996,
1219,SAUK VILLAGE,,RSOC,SFSP,ACTIVE,,,,41.505602,
1220,LOWER WEST SIDE,,Union League Boys & Girls Club,SFSP,ACTIVE,,,,41.90360870000001,
1221,HARVEY,,The Harvey Finishers TrackClub,KIDS CAFE,INACTIVEFB,,,,41.618778000000006,
1222,RIVERDALE - SUBURB,,Shekinah Chapel - SIMFA Summer,SFSP,ACTIVE,,,,41.644223,
1223,RICHTON PARK,,Beginnings Pre-School,CACFP,INACTIVEAG,,,,41.9092518,
1224,ROSELAND,,Mercy Housing Lakefront,SFSP,ACTIVE,,,,41.70474229999999,
1225,RIVERDALE - CHICAGO,,My Cheer Now Summer Camp,SFSP,ACTIVE,,,,41.676800799999995,
1226,SOUTH CHICAGO,,CHA Mackinaw,SFSP,ACTIVE,,,,41.7438159,
1227,SOUTH CHICAGO,,Immaculate Conception School,KIDS CAFE,INACTIVEFB,,,,41.9864405,
1228,SOUTH CHICAGO,,King of Glory Tabernacle Churc,SFSP,ACTIVE,,,,41.7446668,
1229,RIVERDALE - CHICAGO,,Carver Elementary School,HKM,ACTIVE,,,,41.6562369,
1230,SOUTH SHORE,,O'Keeffe School of Excellence,HKM,ACTIVE,,,,41.7686287,
1231,SOUTH CHICAGO,,Arnold Mireles Academy,HKM,ACTIVE,,,,41.7311453,
1232,SOUTH CHICAGO HEIGHTS,,Alicia's House,GCFD-MP,INACTIVEFB,,,,41.490937,
1233,SAUK VILLAGE,,Respond Now: Sauk Village,GCFD-MP,INACTIVEFB,,,,41.494637,
1234,FORD HEIGHTS,,Ford Heights Community Service,GCFD-MP,INACTIVEFB,,,,41.506003,
1235,CHICAGO HEIGHTS,,Chicago Miracle Temple Church,GCFD-MP,INACTIVEFB,,,,41.5023544,
1236,MARKHAM,,Hope Community Services,GCFD-MP,INACTIVEFB,,,,41.592364,
1237,SAUK VILLAGE,,Emmanuel Church,GCFD-MP,ACTIVE,,,,41.48125599999999,
1238,CHICAGO HEIGHTS,,TSA: Chicago Heights,GCFD-MP,INACTIVEAG,,,,41.52331299999999,
1239,CHICAGO HEIGHTS,,Greater Faith Baptist Church,GCFD-MP,INACTIVEFB,,,,41.505294899999996,
1240,ROSELAND,,Vivian E. Summer Preparatory S,FOODBOX,INACTIVEFB,,,,41.6898865,
1241,RIVERDALE - CHICAGO,,Carver Park-DFSS Service Fair,FOODBOX,INACTIVEFB,,,,41.65591939999999,
1242,SOUTH CHICAGO,,Christ Bible Church of Chicago,FOODBOX,INACTIVEFB,,,,41.752427000000004,
1243,SOUTH CHICAGO,,Christ Deliverance Church,FOODBOX,INACTIVEFB,,,,41.745567,
1244,SOUTH DEERING,,St. Kevin Food Pantry,FOODBOX,INACTIVEFB,,,,41.704190399999995,
1245,SOUTH CHICAGO,,Christ Bilbe Church of God,FOODBOX,INACTIVEFB,,,,41.752427000000004,
1246,SOUTH CHICAGO,,Grace Apostolic Church,FOODBOX,INACTIVEFB,,,,41.7455141,
1247,SOUTH CHICAGO,,Impact Ministry/,GCFD-MP,ACTIVE,,,,41.752427000000004,
1248,CHICAGO HEIGHTS,,True Foundation Church,GCFD-MP,ACTIVE,,,,41.506160799999996,
1249,CHICAGO HEIGHTS,,Faith Movers Church,GCFD-MP,ACTIVE,,,,41.504084999999996,
1250,CHICAGO HEIGHTS,,Access Health/Respond Now,GCFD-MP,INACTIVEFB,,,,41.505751200000006,
1251,SOUTH HOLLAND,,Covenant United C.O.C.,GCFD-MP,INACTIVEFB,,,,41.61595639999999,
1252,SOUTH DEERING,,Trumball Park,FOODBOX,INACTIVEFB,,,,41.7056963,
1253,ROSELAND,,Palmer Park,FOODBOX,INACTIVEFB,,,,41.8692646,
1254,SAUK VILLAGE,,Respond Now: Sauk Village,GCFD-MP,INACTIVEFB,,,,41.4936899,
1255,HARVEY,,Millennium Ministries,GCFD-MP,INACTIVEFB,,,,41.8758987,
1256,PARK FOREST,,St Irenaeus/Catholic Charities,GCFD-MP,INACTIVEFB,,,,41.479414,
1257,ROSELAND,,Roseland Christian Ministries,GCFD-MP,INACTIVEFB,,,,41.6964833,
1258,RIVERDALE - CHICAGO,,Altgeld Murray Homes,GCFD-MP,INACTIVEFB,,,,41.657474900000004,
1259,HARVEY,,Millennium Ministries,GCFD-PM,INACTIVEFB,,,,41.61170329999999,
1260,DOLTON,,Abundant Living Christian Ctr,GCFD-PM,INACTIVEFB,,,,41.63004979999999,
1261,SOUTH HOLLAND,,Covenant United C.O.C.,GCFD-PM,INACTIVEFB,,,,41.61595639999999,
1262,SOUTH DEERING,,St. Kevin Parish,GCFD-MP,ACTIVE,,,,41.704190399999995,
1263,SOUTH DEERING,,Burnham/Anthony School,N4K,INACTIVEAG,,,,41.7206139,
1264,SOUTH CHICAGO,,New Sullivan School,N4K,INACTIVEAG,,,,41.7440133,
1265,CHICAGO HEIGHTS,,Lincoln School-NFK,N4K,INACTIVEFB,,,,41.50353870000001,
1266,CHICAGO HEIGHTS,,Lincoln School,N4K,INACTIVEAG,,,,41.50353870000001,
1267,CHICAGO HEIGHTS,,Lincoln School,N4K,INACTIVEFB,,,,41.50353870000001,
1268,SOUTH CHICAGO,,New Sullivan Elementary,N4K,INACTIVEFB,,,,41.7440133,
1269,SOUTH DEERING,,Burnham Anthony Elementary,N4K,INACTIVEFB,,,,41.7206139,
1270,FORD HEIGHTS,,Ford Heights Youth Committee,N4K,INACTIVEFB,,,,41.5076706,
1271,EAST SIDE,,Gallistel Elementary,N4K,INACTIVEFB,,,,41.706883399999995,
1272,SOUTH DEERING,,Lawrence Elementary,N4K,INACTIVEFB,,,,41.7092873,
1273,EAST SIDE,,Gallistel Academy (BRANCH),N4K,INACTIVEFB,,,,41.7100195,
1274,EAST SIDE,,Gallistel Academy (HS),N4K,INACTIVEFB,,,,41.7106001,
1275,PULLMAN,,Pullman Elementary,N4K,INACTIVEFB,,,,41.6884931,
1276,RIVERDALE - CHICAGO,,Golden Gate Day Care Center,ONSITE,INACTIVEFB,,,,41.651084000000004,
1277,CHICAGO HEIGHTS,,Respond Now,ONSITE,INACTIVEFB,,,,41.5047724,
1278,ROSELAND,,Catholic Charities: Roseland,ONSITE,INACTIVEFB,,,,41.68918619999999,
1279,SOUTH CHICAGO,,Family Rescue,ONSITE,INACTIVEFB,,,,41.730326399999996,
1280,SOUTH SHORE,,South Shore Community Church,ONSITE,INACTIVEFB,,,,41.760646200000004,
1281,SOUTH CHICAGO,,SE Emergency FP Ada Mckinley,ONSITE,INACTIVEFB,,,,41.730357399999995,
1282,RIVERDALE - CHICAGO,,St. Mary's Parish Center,ONSITE,INACTIVEAG,,,,41.6460102,
1283,EAST SIDE,,St. Francis De Sales: SVDP,ONSITE,INACTIVEFB,,,,41.710446000000005,
1284,ROSELAND,,Beacon of Joy,ONSITE,INACTIVEFB,,,,41.6977102,
1285,SOUTH DEERING,,Our Lady Gate of Heaven Church,ONSITE,INACTIVEFB,,,,41.71550379999999,
1286,HARVEY,,Ascension-St. Susanna PY,ONSITE,INACTIVEFB,,,,41.612283399999995,
1287,SOUTH SHORE,,Bryn Mawr Community Church,ONSITE,INACTIVEFB,,,,41.7676063,
1288,CALUMET CITY,,Calumet City Resources,ONSITE,INACTIVEFB,,,,41.6129393,
1289,RICHTON PARK,,Rich Township Pantry,ONSITE,INACTIVEFB,,,,41.489528,
1290,STEGER,,Community Outreach Program,ONSITE,INACTIVEFB,,,,41.4677742,
1291,HARVEY,,Restoration Ministries,ONSITE,INACTIVEFB,,,,41.6008779,
1292,SOUTH SHORE,,Excellent Way,ONSITE,INACTIVEFB,,,,41.7520206,
1293,SOUTH HOLLAND,,Hattie B. Williams Food Pantry,ONSITE,INACTIVEFB,,,,41.615961999999996,
1294,FORD HEIGHTS,,Ford Heights Community Service,ONSITE,INACTIVEFB,,,,41.506003,
1295,SOUTH SHORE,,Windsor Park Lutheran Church,ONSITE,INACTIVEFB,,,,41.7570385,
1296,SOUTH CHICAGO,,Trinity Resurrection United,ONSITE,INACTIVEFB,,,,41.7303773,
1297,HARVEY,,South Suburban YMCA Senior Ctr,ONSITE,INACTIVEFB,,,,41.6081284,
1298,HARVEY,,St. Clement's Open Pantry,ONSITE,INACTIVEFB,,,,41.611940000000004,
1299,ROSELAND,,Community Learning Center Inc.,ONSITE,INACTIVEFB,,,,41.7011493,
1300,CHICAGO HEIGHTS,,Christ Ecumenical Center,ONSITE,INACTIVEFB,,,,41.501857,
1301,LANSING,,Lansing Community Pantry,ONSITE,INACTIVEFB,,,,41.5649428,
1302,EAST HAZEL CREST,,"South Suburban Council, The",ONSITE,INACTIVEFB,,,,41.57465819999999,
1303,HEGEWISCH,,St. Florian: SVDP Food Pantry,ONSITE,INACTIVEFB,,,,41.656268,
1304,ROSELAND,,True Vine of Holiness Church,ONSITE,INACTIVEFB,,,,41.6930114,
1305,SOUTH CHICAGO,,Centro Comunitario Juan Diego,ONSITE,INACTIVEFB,,,,41.735039,
1306,MARKHAM,,Hope Community Services,ONSITE,INACTIVEFB,,,,41.5945857,
1307,BURNHAM,,Child Life Day Care,ONSITE,INACTIVEFB,,,,41.631985799999995,
1308,SOUTH CHICAGO,,ABJ Community Services Inc.,ONSITE,INACTIVEFB,,,,41.766563700000006,
1309,SOUTH SHORE,,St. Philip Neri Lady of Peace,ONSITE,INACTIVEFB,,,,41.764842200000004,
1310,SOUTH DEERING,,St. Kevin Food Pantry,ONSITE,INACTIVEFB,,,,41.704190399999995,
1311,HARVEY,,Wesley Memorial,ONSITE,INACTIVEFB,,,,41.612233,
1312,CHICAGO HEIGHTS,,Chicago Miracle Temple,ONSITE,INACTIVEFB,,,,41.5023544,
1313,RIVERDALE - SUBURB,,Queen of Apostles,ONSITE,INACTIVEFB,,,,41.63177400000001,
1314,SOUTH SHORE,,South Shore Baptist Church,ONSITE,INACTIVEFB,,,,41.752427000000004,
1315,HARVEY,,New Shining Light COGIC,ONSITE,INACTIVEFB,,,,41.609359999999995,
1316,HAZEL CREST,,Hazel Crest Community Ch UMC,ONSITE,INACTIVEFB,,,,41.580379,
1317,ROSELAND,,Greater Tab. MBC: Roseland,ONSITE,INACTIVEFB,,,,41.689620399999995,
1318,BURNHAM,,Grace Church,ONSITE,INACTIVEFB,,,,41.6575232,
1319,HARVEY,,New Mount Olive Christian Help,ONSITE,INACTIVEFB,,,,41.60467999999999,
1320,HARVEY,,Thornton Twp Pantry,ONSITE,INACTIVEFB,,,,41.60035269999999,
1321,ROSELAND,,Faith United Family Enrichment,ONSITE,INACTIVEFB,,,,41.685608200000004,
